     3.04           OBSERVATION DATA    M: Mixed            RINEX VERSION / TYPE
RtkConv Qt EX 2.5.0                     20251010 005837 UTC PGM / RUN BY / DATE 
format: u-blox UBX                                          COMMENT             
log: /home/gnssai/Desktop/akishima-sensor_fusion/gici-open/oCOMMENT             
  utput/gnss_rover.ubx                                      COMMENT             
                                                            MARKER NAME         
                                                            MARKER NUMBER       
                                                            MARKER TYPE         
                                                            OBSERVER / AGENCY   
                                                            REC # / TYPE / VERS 
                                                            ANT # / TYPE        
 -3961911.2455  3348996.2210  3698216.3870                  APPROX POSITION XYZ 
        0.0000        0.0000        0.0000                  ANTENNA: DELTA H/E/N
G    8 C1C L1C D1C S1C C2X L2X D2X S2X                      SYS / # / OBS TYPES 
R    8 C1C L1C D1C S1C C2C L2C D2C S2C                      SYS / # / OBS TYPES 
E    8 C1X L1X D1X S1X C7X L7X D7X S7X                      SYS / # / OBS TYPES 
J    8 C1C L1C D1C S1C C2X L2X D2X S2X                      SYS / # / OBS TYPES 
C    8 C2I L2I D2I S2I C7I L7I D7I S7I                      SYS / # / OBS TYPES 
  2025    10    10    00    42   48.0030000     GPS         TIME OF FIRST OBS   
  2025    10    10    00    49   42.0030000     GPS         TIME OF LAST OBS    
G L1C                                                       SYS / PHASE SHIFT   
G L2X  0.00000                                              SYS / PHASE SHIFT   
R L1C                                                       SYS / PHASE SHIFT   
R L2C                                                       SYS / PHASE SHIFT   
E L1X  0.00000                                              SYS / PHASE SHIFT   
E L7X  0.00000                                              SYS / PHASE SHIFT   
J L1C                                                       SYS / PHASE SHIFT   
J L2X  0.00000                                              SYS / PHASE SHIFT   
C L2I                                                       SYS / PHASE SHIFT   
C L7I                                                       SYS / PHASE SHIFT   
  9 R03  5 R04  6 R05  1 R13 -2 R14 -7 R15  0 R18 -3 R19  3 GLONASS SLOT / FRQ #
    R20  2                                                  GLONASS SLOT / FRQ #
 C1C    0.000 C1P    0.000 C2C    0.000 C2P    0.000        GLONASS COD/PHS/BIS 
                                                            END OF HEADER       
> 2025 10 10 00 42 48.0030000  0 42                     
G05  21731012.884   114197219.240       -1768.628          48.000    21731011.592    88984854.7861      -1378.253          47.000  
G13  21399519.283   112455207.8951      -2106.013          48.000                                                                  
G15  21157839.125   111185167.5331        194.657          48.000    21157837.060    86637805.073         151.533          47.000  
G18  23325312.757   122575321.8171       1307.413          44.000    23325311.870    95513260.5111       1018.655          44.000  
G20  23355489.850   122733888.910       -3161.835          43.000                                                                  
G21  23757399.165   124845935.408       -3043.083          42.000    23757400.757    97282564.3411      -2371.040          43.000  
C01  38119099.740   198496148.4881       -526.547          47.000    38119095.606   153489796.983        -407.220          47.000  
C02  40235056.690   209514483.9021       -460.511          37.000    40235052.703   162009878.113        -356.458          39.000  
C06  40478048.786   210779817.8301        823.103          37.000    40478050.839   162988337.376         636.627          40.000  
C08  38086736.966   198327625.8641        218.040          45.000    38086729.529   153359473.314         168.599          48.000  
C13  38746335.355   201762331.505         254.497          46.000    38746336.026   156015435.523         196.812          45.000  
C16  40244303.416   209562641.2011        766.473          42.000    40244307.082   162047144.915         592.449          41.000  
R14  21982733.905   117180347.480        1728.479          53.000    21982736.758    91140287.875        1344.371          50.000  
R13  23261001.055   124212436.7821      -2285.617          42.000                                                                  
R05  22741103.257   121564221.598        1355.361          51.000    22741103.622    94549966.8231       1054.190          47.000  
R20  22491974.097   120274691.0471        971.743          40.000    22491977.485    93547000.612         755.818          49.000  
R19  21700547.361   116083285.4161      -3065.760          52.000    21700546.011    90286990.8741      -2384.479          50.000  
R03  22943696.042   122819390.5551      -2572.457          49.000    22943696.397    95526187.162       -2000.839          46.000  
G24  23016607.348   120953063.0061       2875.598          44.000    23016609.634    94249180.5371       2240.590          42.000  
G30  25366239.003   133300441.978       -3639.990          36.000    25366244.349                1      -2836.017          29.000  
E07  26035266.338   136816242.483       -2306.736          45.000    26035271.827   104833243.513       -1767.501          49.000  
E19  26332270.875   138377020.694        1215.599          38.000    26332275.957   106029165.911         931.538          40.000  
E26  25393922.883   133445959.961       -2801.411          46.000    25393926.585   102250808.050       -2146.550          51.000  
E29  24550309.507   129012747.459        -357.865          47.000    24550312.316    98853931.791        -274.251          53.000  
C19  23650883.065   123156352.770         434.622          50.000                                                                  
C20  23873915.823   124317739.3001      -1539.824          51.000                                                                  
C03  38485541.564   200404301.9201       -520.590          43.000    38485536.389   154965300.4581       -402.432          44.000  
C04  38034850.413   198057440.258        -551.614          45.000    38034844.206   153150551.0851       -426.429          46.000  
C38  37134923.343   193371294.8831          7.062          49.000                                                                  
C37  25154689.127   130987067.016       -1292.385          46.000                                                                  
R04  21101030.033   112995052.2571       -699.088          53.000    21101027.323    87885031.1711       -543.691          51.000  
R18  24399657.971   130246930.3031      -4928.499          42.000    24399673.366   101303186.0381      -3833.191          45.000  
R15  24243070.367   129547685.238        3687.778          44.000    24243082.749   100759447.914        2868.165          46.000  
E33  24893748.645   130817529.509        -162.404          47.000    24893751.060   100236816.351        -124.462          52.000  
J03  37963433.616   199499163.0921       -326.721          45.000    37963433.872   155453911.648        -254.449          48.000  
J07  38239709.959   200951008.0871       -524.459          39.000    38239709.468   156585215.942        -408.995          46.000  
G29  26303317.369   138224829.6771      -3018.797          36.000    26303323.947                       -2353.213          31.000  
G14  25052546.248   131652005.7131        363.987          38.000    25052548.937   102586008.7981        283.401          36.000  
G22  25140326.338   132113317.1231        930.523          38.000                                                                  
G23  24980085.579   131271240.232        2624.399          38.000    24980087.440   102289290.580        2044.739          38.000  
E30  28651362.635   150563940.615         838.395          35.000                                                                  
J04                                                                  39865734.095   163243516.1671       -523.761          49.000  
> 2025 10 10 00 42 49.0030000  0 42                     
G05  21731349.441   114198987.869       -1768.817          48.000    21731348.153    88986232.936       -1378.339          47.000  
G13  21399920.005   112457313.831       -2106.068          48.000                                                                  
G15  21157802.059   111184972.828         194.584          48.000    21157800.042    86637653.351         151.603          47.000  
G18  23325063.968   122574014.647        1306.876          44.000    23325063.206    95512241.929        1018.376          44.000  
G20  23356091.605   122737050.726       -3161.942          44.000                                                                  
G21  23757978.219   124848978.213       -3042.802          42.000    23757979.896    97284935.358       -2371.013          43.000  
C01  38119200.804   198496674.763        -526.251          47.000    38119196.732   153490203.934        -406.987          47.000  
C02  40235145.293   209514944.499        -460.792          37.000    40235141.154   162010234.258        -356.306          39.000  
C06  40477890.710   210778994.365         823.287          37.000    40477892.688   162987700.600         636.972          40.000  
C08  38086695.034   198327407.469         218.423          45.000    38086687.611   153359304.449         168.760          48.000  
C13  38746286.411   201762076.708         254.954          46.000    38746287.094   156015238.495         197.064          45.000  
C16  40244156.186   209561874.639         766.526          42.000    40244159.818   162046552.145         592.867          41.000  
R14  21982409.691   117178619.110        1727.971          53.000    21982412.586    91138943.586        1343.957          50.000  
R13  23261429.156   124214722.579       -2286.043          43.000                                                                  
R05  22740849.702   121562866.070        1355.465          51.000    22740849.971    94548912.526        1054.222          47.000  
R20  22491792.410   120273719.311         971.461          40.000    22491795.706    93546244.824         755.434          49.000  
R19  21701120.541   116086351.301       -3066.254          52.000    21701119.042    90289375.442       -2384.821          50.000  
R03  22944176.554   122821962.797       -2572.243          49.000    22944176.938    95528187.786       -2000.647          46.000  
G24  23016060.167   120950187.456        2875.445          44.000    23016062.395    94246939.850        2240.600          42.000  
G30  25366931.612   133304081.603       -3639.729          36.000    25366936.964   103873344.1791      -2836.069          29.000  
E07  26035705.373   136818548.982       -2306.576          45.000    26035710.714   104835010.826       -1767.372          50.000  
E19  26332039.443   138375804.775        1216.003          38.000    26332044.550   106028234.236         931.679          41.000  
E26  25394455.913   133448761.299       -2801.502          46.000    25394459.621   102252954.525       -2146.579          51.000  
E29  24550377.493   129013105.191        -357.717          47.000    24550380.339    98854205.898        -274.232          54.000  
C19  23650799.593   123155917.998         434.643          50.000                                                                  
C20  23874211.556   124319278.932       -1539.732          51.000                                                                  
C03  38485641.450   200404822.072        -519.886          43.000    38485636.341   154965702.680        -402.400          44.000  
C04  38034956.492   198057991.574        -551.213          45.000    38034950.056   153150977.399        -426.211          46.000  
C38  37134922.096   193371287.650           7.236          49.000                                                                  
C37  25154937.310   130988359.428       -1292.573          46.000                                                                  
R04  21101160.558   112995751.170        -699.026          53.000    21101157.924    87885574.769        -543.716          51.000  
R18  24400581.227   130251858.587       -4928.309          42.000    24400596.622   101307019.098       -3833.143          45.000  
R15  24242380.136   129543997.195        3688.099          44.000    24242392.638   100756579.456        2868.550          46.000  
E33  24893779.572   130817691.943        -162.671          47.000    24893782.000   100236940.809        -124.678          53.000  
J03  37963495.714   199499489.556        -326.486          45.000    37963496.036   155454166.033        -254.399          48.000  
J07  38239809.646   200951532.530        -524.594          39.000    38239809.308   156585624.590        -408.740          46.000  
G29  26303891.690   138227848.020       -3018.344          35.000    26303898.222   107710044.945       -2352.136          31.000  
G14  25052476.972   131651641.592         364.056          38.000    25052479.586   102585725.060         283.714          36.000  
G22  25140149.351   132112386.973         930.134          38.000                                                                  
G23  24979586.109   131268615.386        2624.985          38.000    24979587.893   102287245.239        2045.465          38.000  
E30  28651202.815   150563101.769         838.582          35.000                                                                  
J04                                                                  39865861.966   163244039.735        -523.517          49.000  
> 2025 10 10 00 42 50.0030000  0 42                     
G05  21731686.034   114200756.895       -1768.896          48.000    21731684.745    88987611.400       -1378.497          47.000  
G13  21400320.718   112459420.019       -2106.053          48.000                                                                  
G15  21157765.033   111184778.411         194.609          48.000    21157763.052    86637501.857         151.570          47.000  
G18  23324815.277   122572708.010        1306.635          45.000    23324814.495    95511223.777        1018.165          44.000  
G20  23356693.214   122740212.835       -3161.964          43.000                                                                  
G21  23758557.273   124852021.262       -3042.997          42.000    23758558.918    97287306.547       -2371.137          43.000  
C01  38119301.904   198497200.987        -525.752          47.000    38119297.755   153490610.854        -406.816          47.000  
C02  40235233.792   209515405.034        -460.396          37.000    40235229.582   162010590.369        -355.995          39.000  
C06  40477732.604   210778170.899         823.705          37.000    40477734.568   162987063.862         637.086          40.000  
C08  38086653.067   198327189.015         218.768          45.000    38086645.610   153359135.515         169.114          48.000  
C13  38746237.530   201761821.819         255.208          46.000    38746238.123   156015041.395         197.399          45.000  
C16  40244008.842   209561108.108         766.821          42.000    40244012.718   162045959.434         592.969          41.000  
R14  21982085.629   117176891.380        1727.684          53.000    21982088.536    91137599.797        1343.769          50.000  
R13  23261857.224   124217009.100       -2286.567          43.000                                                                  
R05  22740596.102   121561510.609        1355.668          51.000    22740596.517    94547858.277        1054.503          47.000  
R20  22491610.840   120272748.396         970.809          40.000    22491614.251    93545489.664         755.087          49.000  
R19  21701693.862   116089417.819       -3066.522          52.000    21701692.313    90291760.515       -2385.077          50.000  
R03  22944657.132   122824535.049       -2571.903          49.000    22944657.451    95530188.424       -2000.304          46.000  
G24  23015512.881   120947312.212        2875.382          44.000    23015515.223    94244699.402        2240.572          42.000  
G30  25367624.190   133307721.326       -3639.310          36.000    25367629.367   103876180.322       -2835.738          29.000  
E07  26036144.238   136820855.486       -2306.396          45.000    26036149.576   104836778.142       -1767.158          49.000  
E19  26331808.214   138374588.985        1216.045          38.000    26331813.076   106027302.664         931.679          40.000  
E26  25394988.969   133451562.935       -2801.593          46.000    25394992.657   102255101.226       -2146.612          50.000  
E29  24550445.770   129013463.076        -357.614          47.000    24550448.310    98854480.118        -274.021          53.000  
C19  23650716.106   123155483.298         434.880          50.000                                                                  
C20  23874507.229   124320818.674       -1539.510          51.000                                                                  
C03  38485741.437   200405342.205        -519.618          43.000    38485736.194   154966104.854        -401.560          44.000  
C04  38035062.456   198058542.862        -551.073          45.000    38035055.867   153151403.692        -426.229          46.000  
C38  37134921.008   193371280.373           7.577          49.000                                                                  
C37  25155185.700   130989652.330       -1292.903          46.000                                                                  
R04  21101291.041   112996450.234        -698.900          53.000    21101288.414    87886118.481        -543.522          51.000  
R18  24401504.515   130256786.821       -4928.088          42.000    24401519.847   101310852.110       -3832.892          45.000  
R15  24241690.054   129540309.137        3688.346          45.000    24241702.411   100753711.000        2868.667          46.000  
E33  24893810.385   130817854.809        -162.768          47.000    24893812.870   100237065.604        -124.738          52.000  
J03  37963557.854   199499816.058        -326.141          45.000    37963558.150   155454420.444        -254.000          48.000  
J07  38239909.378   200952056.921        -523.799          39.000    38239909.240   156586033.216        -408.552          46.000  
G29  26304466.099   138230866.286       -3017.876          35.000    26304472.570   107712396.840       -2351.728          31.000  
G14  25052407.695   131651277.899         363.589          38.000    25052410.419   102585441.664         283.339          36.000  
G22  25139972.488   132111457.116         930.073          38.000                                                                  
G23  24979086.587   131265990.502        2625.187          38.000    24979088.367   102285199.872        2045.699          38.000  
E30  28651043.302   150562263.221         838.628          35.000                                                                  
J04                                                                  39865989.762   163244563.212        -523.212          49.000  
> 2025 10 10 00 42 51.0030000  0 42                     
G05  21732022.700   114202526.204       -1769.507          48.000    21732021.437    88988990.075       -1378.839          47.000  
G13  21400721.582   112461526.343       -2106.613          48.000                                                                  
G15  21157728.023   111184584.187         193.960          48.000    21157726.126    86637350.511         151.146          47.000  
G18  23324566.697   122571401.800        1305.848          45.000    23324565.976    95510205.956        1017.412          44.000  
G20  23357295.004   122743375.116       -3162.521          43.000                                                                  
G21  23759136.424   124855064.413       -3043.308          42.000    23759137.953    97289677.838       -2371.547          43.000  
C01  38119402.937   198497727.085        -526.110          47.000    38119398.763   153491017.657        -406.925          48.000  
C02  40235322.243   209515865.431        -460.469          37.000    40235318.042   162010946.390        -356.161          40.000  
C06  40477574.463   210777347.363         823.397          37.000    40477576.352   162986427.043         636.999          41.000  
C08  38086611.032   198326970.371         218.447          45.000    38086603.643   153358966.445         168.983          48.000  
C13  38746188.550   201761566.730         254.956          46.000    38746189.141   156014844.137         197.341          45.000  
C16  40243861.576   209560341.517         766.421          42.000    40243865.443   162045366.655         592.498          42.000  
R14  21981761.743   117175164.183        1726.761          53.000    21981764.504    91136256.426        1343.054          50.000  
R13  23262285.501   124219296.261       -2287.498          42.000                                                                  
R05  22740342.470   121560155.119        1355.328          51.000    22740342.929    94546804.010        1054.172          47.000  
R20  22491429.460   120271778.180         969.454          41.000    22491432.739    93544735.043         754.256          49.000  
R19  21702267.236   116092484.874       -3067.420          52.000    21702265.688    90294145.996       -2385.754          50.000  
R03  22945137.583   122827107.238       -2572.324          49.000    22945138.024    95532189.011       -2000.789          46.000  
G24  23014965.761   120944437.171        2874.818          44.000    23014968.080    94242459.111        2240.120          42.000  
G30  25368316.819   133311361.194       -3639.958          36.000    25368322.067   103879016.547       -2836.293          29.000  
E07  26036583.113   136823161.880       -2306.540          45.000    26036588.461   104838545.383       -1767.317          50.000  
E19  26331576.775   138373373.231        1215.626          38.000    26331581.733   106026371.090         931.666          41.000  
E26  25395522.279   133454364.746       -2802.064          46.000    25395525.968   102257248.066       -2146.993          52.000  
E29  24550513.799   129013821.016        -358.088          47.000    24550516.593    98854754.379        -274.343          54.000  
C19  23650632.580   123155048.571         434.542          50.000                                                                  
C20  23874802.980   124322358.408       -1539.924          51.000                                                                  
C03  38485841.204   200405862.190        -520.017          43.000    38485836.071   154966506.958        -402.165          45.000  
C04  38035168.283   198059094.011        -551.279          45.000    38035161.759   153151829.874        -426.292          47.000  
C38  37134920.190   193371272.957           7.329          49.000                                                                  
C37  25155434.012   130990945.610       -1293.657          46.000                                                                  
R04  21101421.603   112997149.334        -699.264          53.000    21101418.903    87886662.227        -543.831          51.000  
R18  24402427.634   130261714.860       -4928.163          42.000    24402443.042   101314684.971       -3832.973          45.000  
R15  24240999.885   129536620.934        3688.276          45.000    24241012.199   100750842.421        2868.592          46.000  
E33  24893841.545   130818018.006        -163.462          47.000    24893844.058   100237190.654        -125.316          53.000  
J03  37963619.954   199500142.494        -326.617          45.000    37963620.287   155454674.817        -254.559          48.000  
J07  38240009.216   200952581.166        -524.145          39.000    38240009.049   156586441.719        -408.715          46.000  
G29  26305040.484   138233884.404       -3018.456          35.000    26305047.036   107714748.598       -2352.103          32.000  
G14  25052338.490   131650914.505         362.947          38.000    25052341.387   102585158.505         282.830          36.000  
G22  25139795.537   132110527.503         928.950          38.000                                                                  
G23  24978587.056   131263365.427        2625.117          38.000    24978588.877   102283154.390        2045.109          38.000  
E30  28650883.868   150561424.847         838.027          35.000                                                                  
J04                                                                  39866117.553   163245086.509        -523.303          49.000  
> 2025 10 10 00 42 52.0030000  0 42                     
G05  21732359.422   114204296.127       -1770.245          48.000    21732358.285    88990369.232       -1379.248          47.000  
G13  21401122.475   112463633.108       -2106.971          48.000                                                                  
G15  21157691.159   111184390.443         193.492          48.000    21157689.284    86637199.546         150.711          47.000  
G18  23324318.299   122570096.343        1305.027          44.000    23324317.505    95509188.715        1016.854          44.000  
G20  23357896.918   122746537.898       -3162.939          43.000                                                                  
G21  23759715.606   124858108.009       -3043.842          42.000    23759717.063    97292049.458       -2371.728          43.000  
C01  38119504.104   198498253.345        -526.378          47.000    38119499.749   153491424.586        -406.848          47.000  
C02  40235410.553   209516326.005        -460.763          37.000    40235406.523   162011302.528        -356.396          40.000  
C06  40477416.486   210776524.039         823.418          37.000    40477418.270   162985790.413         636.486          40.000  
C08  38086569.096   198326751.860         218.249          45.000    38086561.647   153358797.466         169.003          48.000  
C13  38746139.601   201761311.772         254.870          46.000    38746140.158   156014646.994         197.228          45.000  
C16  40243714.402   209559575.173         766.095          42.000    40243718.269   162044774.065         592.291          41.000  
R14  21981437.940   117173437.817        1725.905          53.000    21981440.631    91134913.703        1342.294          50.000  
R13  23262714.004   124221584.374       -2288.535          43.000                                                                  
R05  22740089.001   121558799.908        1355.075          51.000    22740089.381    94545749.957        1053.825          47.000  
R20  22491248.211   120270808.950         968.804          40.000    22491251.529    93543981.206         753.534          49.000  
R19  21702840.688   116095552.786       -3068.433          52.000    21702839.172    90296532.149       -2386.481          50.000  
R03  22945618.155   122829679.672       -2572.548          49.000    22945618.647    95534189.801       -2000.976          46.000  
G24  23014418.799   120941562.646        2874.380          44.000    23014420.988    94240219.225        2239.573          42.000  
G30  25369009.629   133315001.347       -3640.291          36.000    25369014.706   103881853.084       -2837.019          29.000  
E07  26037021.891   136825468.488       -2306.616          45.000    26037027.390   104840312.777       -1767.374          50.000  
E19  26331345.632   138372157.817        1215.254          38.000    26331350.424   106025439.817         931.163          41.000  
E26  25396055.586   133457167.053       -2802.617          46.000    25396059.307   102259395.294       -2147.552          52.000  
E29  24550581.866   129014179.303        -358.427          47.000    24550584.803    98855028.915        -274.687          54.000  
C19  23650549.195   123154614.130         434.262          50.000                                                                  
C20  23875098.703   124323898.451       -1540.181          51.000                                                                  
C03  38485941.036   200406382.344        -520.300          43.000    38485935.972   154966909.166        -402.324          44.000  
C04  38035274.282   198059645.327        -551.337          45.000    38035267.720   153152256.190        -426.516          46.000  
C38  37134919.380   193371265.712           7.135          49.000                                                                  
C37  25155682.577   130992239.588       -1294.261          46.000                                                                  
R04  21101552.092   112997848.771        -699.580          53.000    21101549.485    87887206.236        -544.122          51.000  
R18  24403350.989   130266643.038       -4928.278          43.000    24403366.243   101318517.954       -3833.070          44.000  
R15  24240309.653   129532932.868        3688.099          44.000    24240322.039   100747973.959        2868.427          46.000  
E33  24893872.612   130818181.849        -164.197          47.000    24893875.104   100237316.191        -125.760          53.000  
J03  37963682.061   199500469.166        -326.760          45.000    37963682.473   155454929.370        -254.758          48.000  
J07  38240109.006   200953105.594        -524.657          39.000    38240108.888   156586850.348        -408.682          46.000  
G29  26305614.757   138236902.651       -3018.591          35.000    26305622.158   107717100.454       -2351.738          32.000  
G14  25052269.477   131650551.726         362.553          38.000    25052272.382   102584875.837         282.273          36.000  
G22  25139618.725   132109598.383         928.915          38.000                                                                  
G23  24978087.459   131260740.509        2624.857          38.000    24978089.304   102281108.986        2045.377          39.000  
E30  28650724.418   150560586.944         837.676          35.000                                                                  
J04                                                                  39866245.327   163245609.877        -523.431          49.000  
> 2025 10 10 00 42 53.0030000  0 42                     
G05  21732696.403   114206066.597       -1770.746          48.000    21732695.219    88991748.817       -1379.736          47.000  
G13  21401523.411   112465740.270       -2107.355          48.000                                                                  
G15  21157654.320   111184197.133         193.165          48.000    21157652.602    86637048.909         150.606          47.000  
G18  23324069.988   122568791.562        1304.366          44.000    23324069.211    95508171.988        1016.548          44.000  
G20  23358498.938   122749701.124       -3163.501          43.000                                                                  
G21  23760294.826   124861151.964       -3044.168          42.000    23760296.297    97294421.380       -2372.220          43.000  
C01  38119605.076   198498779.711        -526.514          47.000    38119600.793   153491831.599        -406.948          48.000  
C02  40235499.033   209516786.673        -460.737          37.000    40235494.916   162011658.727        -356.133          40.000  
C06  40477258.365   210775700.875         823.295          37.000    40477260.170   162985153.897         636.281          41.000  
C08  38086527.206   198326533.408         218.237          45.000    38086519.740   153358628.543         169.017          48.000  
C13  38746090.661   201761056.843         255.045          46.000    38746091.334   156014449.873         197.106          45.000  
C16  40243567.235   209558809.000         766.061          42.000    40243571.106   162044181.613         592.244          42.000  
R14  21981114.226   117171712.216        1725.219          53.000    21981116.981    91133571.568        1341.843          50.000  
R13  23263142.614   124223873.395       -2289.467          43.000                                                                  
R05  22739835.560   121557444.911        1354.806          51.000    22739835.818    94544696.069        1053.762          47.000  
R20  22491067.077   120269840.688         967.789          40.000    22491070.468    93543228.112         752.734          49.000  
R19  21703414.311   116098621.492       -3069.067          52.000    21703412.911    90298918.920       -2387.122          50.000  
R03  22946098.791   122832252.321       -2572.742          49.000    22946099.153    95536190.739       -2001.091          46.000  
G24  23013871.884   120938688.576        2873.818          44.000    23013874.145    94237979.687        2239.311          42.000  
G30  25369702.374   133318641.801       -3640.414          36.000    25369707.446   103884689.807       -2837.088          29.000  
E07  26037460.881   136827775.243       -2306.700          45.000    26037466.456   104842080.296       -1767.564          50.000  
E19  26331114.630   138370942.635        1215.157          38.000    26331119.088   106024508.697         931.310          41.000  
E26  25396588.872   133459969.798       -2802.923          46.000    25396592.496   102261542.843       -2147.645          52.000  
E29  24550650.276   129014537.883        -358.661          47.000    24550652.878    98855303.674        -274.904          54.000  
C19  23650465.834   123154179.910         434.097          50.000                                                                  
C20  23875394.416   124325438.736       -1540.401          51.000                                                                  
C03  38486040.995   200406902.584        -520.287          43.000    38486035.885   154967311.457        -402.639          45.000  
C04  38035379.954   198060196.760        -551.495          45.000    38035373.642   153152682.579        -426.539          47.000  
C38  37134918.418   193371258.563           7.115          49.000                                                                  
C37  25155931.205   130993534.201       -1294.946          46.000                                                                  
R04  21101682.750   112998548.478        -699.911          53.000    21101680.138    87887750.448        -544.344          51.000  
R18  24404274.315   130271571.316       -4928.302          43.000    24404289.511   101322350.999       -3833.008          44.000  
R15  24239619.603   129529244.889        3687.976          45.000    24239631.789   100745105.559        2868.389          46.000  
E33  24893903.933   130818346.264        -164.674          47.000    24893906.385   100237442.169        -126.256          53.000  
J03  37963744.304   199500796.037        -327.025          45.000    37963744.651   155455184.064        -254.839          48.000  
J07  38240208.773   200953630.092        -524.092          39.000    38240208.717   156587259.060        -408.819          46.000  
G29  26306189.021   138239920.982       -3018.129          34.000    26306196.892   107719452.358       -2351.758          32.000  
G14  25052200.619   131650189.531         361.413          38.000    25052203.567   102584593.593         281.677          36.000  
G22  25139442.025   132108669.725         928.644          38.000                                                                  
G23  24977587.996   131258115.669        2624.726          38.000    24977589.840   102279063.637        2045.464          39.000  
E30  28650565.063   150559749.477         836.994          35.000                                                                  
J04                                                                  39866373.204   163246133.260        -523.431          49.000  
> 2025 10 10 00 42 54.0030000  0 42                     
G05  21733033.382   114207837.177       -1770.734          48.000    21733032.043    88993128.492       -1379.724          47.000  
G13  21401924.435   112467847.402       -2107.203          48.000                                                                  
G15  21157617.599   111184003.846         193.099          48.000    21157615.824    86636898.296         150.548          47.000  
G18  23323821.634   122567487.047        1304.278          44.000    23323820.980    95507155.490        1016.327          44.000  
G20  23359100.913   122752864.354       -3163.474          43.000                                                                  
G21  23760874.016   124864195.888       -3044.108          42.000    23760875.608    97296793.244       -2371.881          43.000  
C01  38119706.214   198499305.746        -526.054          47.000    38119701.804   153492238.368        -406.793          47.000  
C02  40235587.438   209517247.058        -460.590          37.000    40235583.369   162012014.729        -356.123          40.000  
C06  40477100.263   210774877.459         823.451          37.000    40477102.073   162984517.176         636.724          40.000  
C08  38086485.199   198326314.594         218.927          45.000    38086477.694   153358459.356         169.170          48.000  
C13  38746041.586   201760801.559         255.451          46.000    38746042.225   156014252.478         197.208          45.000  
C16  40243420.082   209558042.598         766.672          42.000    40243423.986   162043589.003         592.246          41.000  
R14  21980790.527   117169986.999        1724.910          53.000    21980793.232    91132229.744        1341.459          50.000  
R13  23263571.426   124226162.857       -2289.890          43.000                                                                  
R05  22739581.954   121556089.715        1355.164          51.000    22739582.273    94543642.029        1054.049          47.000  
R20  22490886.197   120268872.959         967.312          40.000    22490889.448    93542475.429         752.462          49.000  
R19  21703988.161   116101690.583       -3069.446          52.000    21703986.693    90301305.980       -2387.244          50.000  
R03  22946579.346   122834824.729       -2572.392          49.000    22946579.675    95538191.501       -2000.611          46.000  
G24  23013324.991   120935814.529        2873.983          44.000    23013327.273    94235740.179        2239.453          42.000  
G30  25370395.079   133322282.181       -3640.632          36.000    25370400.227   103887526.405       -2836.602          29.000  
E07  26037899.965   136830081.741       -2306.489          45.000    26037905.388   104843847.607       -1767.368          50.000  
E19  26330883.205   138369727.306        1215.379          38.000    26330887.867   106023577.485         931.292          41.000  
E26  25397122.180   133462772.568       -2802.905          46.000    25397125.930   102263690.417       -2147.726          52.000  
E29  24550718.475   129014896.347        -358.533          47.000    24550721.150    98855578.339        -274.749          54.000  
C19  23650382.662   123153745.496         434.465          50.000                                                                  
C20  23875690.253   124326978.849       -1540.221          51.000                                                                  
C03  38486140.800   200407422.521        -519.722          43.000    38486135.779   154967713.497        -401.845          44.000  
C04  38035485.756   198060747.872        -551.075          45.000    38035479.501   153153108.731        -426.186          46.000  
C38  37134917.410   193371251.114           7.450          49.000                                                                  
C37  25156179.824   130994829.026       -1295.123          46.000                                                                  
R04  21101813.476   112999248.017        -699.568          53.000    21101810.649    87888294.534        -544.100          51.000  
R18  24405197.473   130276499.231       -4927.647          43.000    24405212.646   101326183.789       -3832.833          44.000  
R15  24238929.366   129525556.591        3688.345          45.000    24238941.519   100742236.916        2868.606          46.000  
E33  24893935.284   130818510.843        -164.745          47.000    24893937.787   100237568.277        -126.280          53.000  
J03  37963806.432   199501122.660        -326.748          45.000    37963806.843   155455438.570        -254.516          48.000  
J07  38240308.573   200954154.292        -524.214          39.000    38240308.514   156587667.524        -408.484          46.000  
G29  26306763.267   138242939.004       -3018.136          34.000    26306771.824   107721804.040       -2351.678          32.000  
G14  25052131.679   131649827.422         362.309          38.000    25052134.669   102584311.447         282.064          36.000  
G22  25139265.401   132107741.169         927.917          38.000                                                                  
G23  24977088.476   131255490.477        2625.057          38.000    24977090.368   102277018.061        2045.462          39.000  
E30  28650405.554   150558911.984         837.308          35.000                                                                  
J04                                                                  39866500.902   163246656.336        -522.974          49.000  
> 2025 10 10 00 42 55.0030000  0 42                     
G05  21733370.348   114209608.001       -1771.124          48.000    21733368.988    88994508.350       -1379.938          47.000  
G13  21402325.480   112469954.625       -2107.448          48.000                                                                  
G15  21157580.801   111183810.706         192.923          48.000    21157579.043    86636747.795         150.458          47.000  
G18  23323573.477   122566182.924        1303.939          44.000    23323572.857    95506139.297        1016.015          44.000  
G20  23359702.850   122756027.716       -3163.556          44.000                                                                  
G21  23761453.265   124867239.873       -3044.100          42.000    23761454.888    97299165.186       -2372.238          43.000  
C01  38119807.144   198499831.604        -525.766          47.000    38119802.826   153492644.998        -406.644          47.000  
C02  40235675.762   209517707.211        -460.060          37.000    40235671.759   162012370.562        -355.966          40.000  
C06  40476942.099   210774053.913         823.371          37.000    40476943.915   162983880.352         636.842          40.000  
C08  38086443.121   198326095.603         218.902          45.000    38086435.638   153358290.015         169.395          48.000  
C13  38745992.549   201760546.053         255.529          46.000    38745993.201   156014054.898         197.480          45.000  
C16  40243272.850   209557276.098         766.415          42.000    40243276.780   162042996.293         592.407          41.000  
R14  21980466.871   117168262.315        1724.322          53.000    21980469.727    91130888.322        1341.074          50.000  
R13  23264000.365   124228452.912       -2290.543          43.000                                                                  
R05  22739328.460   121554734.442        1355.221          51.000    22739328.644    94542587.940        1054.019          47.000  
R20  22490705.356   120267905.873         966.773          41.000    22490708.583    93541723.264         751.799          49.000  
R19  21704561.976   116104760.174       -3069.898          52.000    21704560.571    90303693.442       -2387.744          50.000  
R03  22947059.904   122837397.037       -2572.403          49.000    22947060.098    95540192.184       -2000.649          46.000  
G24  23012778.146   120932940.659        2873.666          44.000    23012780.328    94233500.815        2238.953          42.000  
G30  25371087.742   133325922.536       -3640.103          36.000    25371093.022   103890363.053       -2836.632          30.000  
E07  26038338.783   136832388.092       -2306.374          45.000    26038344.302   104845614.809       -1767.218          49.000  
E19  26330652.018   138368511.967        1215.098          38.000    26330656.675   106022646.239         931.302          40.000  
E26  25397655.595   133465575.471       -2803.017          46.000    25397659.289   102265838.090       -2147.781          51.000  
E29  24550786.717   129015254.814        -358.527          47.000    24550789.479    98855853.003        -274.755          53.000  
C19  23650298.958   123153311.018         434.376          50.000                                                                  
C20  23875986.019   124328518.915       -1540.050          51.000                                                                  
C03  38486240.499   200407942.280        -519.551          43.000    38486235.587   154968115.415        -401.849          44.000  
C04  38035591.453   198061298.803        -550.923          45.000    38035585.352   153153534.751        -426.020          46.000  
C38  37134915.923   193371243.482           7.597          49.000                                                                  
C37  25156428.392   130996124.195       -1295.656          46.000                                                                  
R04  21101944.093   112999947.551        -699.623          53.000    21101941.359    87888838.616        -544.166          51.000  
R18  24406120.664   130281426.954       -4927.592          43.000    24406135.712   101330016.399       -3832.574          44.000  
R15  24238239.038   129521868.131        3688.326          44.000    24238251.265   100739368.125        2868.910          46.000  
E33  24893966.652   130818675.717        -165.172          47.000    24893969.134   100237694.605        -126.497          52.000  
J03  37963868.643   199501449.172        -326.523          45.000    37963868.962   155455692.997        -254.462          48.000  
J07  38240408.323   200954678.315        -523.908          39.000    38240408.153   156588075.842        -408.328          46.000  
G29  26307337.613   138245956.783       -3017.545          34.000    26307346.503   107724155.520       -2351.074          31.000  
G14  25052062.818   131649465.629         361.591          38.000    25052065.846   102584029.512         281.935          36.000  
G22  25139088.717   132106812.725         928.438          38.000                                                                  
G23  24976588.884   131252865.053        2625.428          38.000    24976590.773   102274972.282        2045.827          39.000  
E30  28650246.139   150558074.622         837.330          35.000                                                                  
J04                                                                  39866628.708   163247179.215        -522.870          49.000  
> 2025 10 10 00 42 56.0030000  0 42                     
G05  21733707.462   114211379.430       -1771.869          48.000    21733706.038    88995888.685       -1380.542          47.000  
G13  21402726.587   112472062.292       -2108.004          48.000                                                                  
G15  21157544.087   111183618.050         192.312          48.000    21157542.348    86636597.675         149.811          47.000  
G18  23323325.481   122564879.555        1302.730          44.000    23323324.872    95505123.678        1015.274          44.000  
G20  23360304.985   122759191.575       -3164.256          44.000                                                                  
G21  23762032.551   124870284.297       -3044.854          42.000    23762034.234    97301537.448       -2372.618          43.000  
C01  38119908.057   198500357.622        -525.944          47.000    38119903.922   153493051.745        -406.731          48.000  
C02  40235764.055   209518167.548        -460.238          37.000    40235760.177   162012726.516        -355.990          40.000  
C06  40476784.058   210773230.582         823.277          37.000    40476785.794   162983243.720         636.176          41.000  
C08  38086401.151   198325876.714         218.721          45.000    38086393.660   153358120.755         169.298          48.000  
C13  38745943.547   201760290.646         255.314          46.000    38745944.211   156013857.397         197.294          46.000  
C16  40243125.687   209556509.847         766.064          42.000    40243129.668   162042403.755         592.469          42.000  
R14  21980143.502   117166538.509        1723.217          53.000    21980146.295    91129547.581        1340.326          50.000  
R13  23264429.420   124230743.893       -2291.595          43.000                                                                  
R05  22739074.859   121553379.450        1354.640          51.000    22739075.183    94541534.052        1053.655          47.000  
R20  22490524.743   120266939.801         965.511          41.000    22490527.919    93540971.871         750.932          49.000  
R19  21705135.919   116107830.595       -3070.917          52.000    21705134.509    90306081.541       -2388.434          50.000  
R03  22947540.492   122839969.582       -2572.760          49.000    22947540.627    95542193.054       -2001.165          46.000  
G24  23012231.337   120930067.289        2873.000          44.000    23012233.551    94231261.817        2238.686          42.000  
G30  25371780.482   133329563.277       -3641.638          36.000    25371785.752   103893199.965       -2836.805          29.000  
E07  26038777.734   136834694.649       -2306.707          45.000    26038783.310   104847382.165       -1767.468          50.000  
E19  26330420.705   138367296.898        1214.818          38.000    26330425.445   106021715.218         930.780          41.000  
E26  25398189.128   133468378.867       -2803.639          46.000    25398192.736   102267986.153       -2148.338          52.000  
E29  24550855.041   129015613.629        -359.032          47.000    24550857.723    98856127.938        -275.112          54.000  
C19  23650215.600   123152876.822         433.983          50.000                                                                  
C20  23876281.665   124330059.288       -1540.701          51.000                                                                  
C03  38486340.318   200408462.212        -520.219          43.000    38486335.442   154968517.457        -402.613          45.000  
C04  38035697.329   198061849.892        -551.242          45.000    38035691.181   153153960.887        -426.310          47.000  
C38  37134914.151   193371236.016           7.339          49.000                                                                  
C37  25156677.407   130997420.048       -1296.256          46.000                                                                  
R04  21102074.801   113000647.431        -700.170          53.000    21102072.083    87889382.965        -544.472          51.000  
R18  24407043.767   130286354.830       -4927.992          44.000    24407058.866   101333849.141       -3832.869          44.000  
R15  24237548.723   129518179.851        3688.145          44.000    24237561.015   100736499.499        2868.502          46.000  
E33  24893998.181   130818841.222        -165.861          47.000    24894000.679   100237821.423        -127.138          53.000  
J03  37963930.835   199501775.931        -327.063          45.000    37963931.096   155455947.609        -254.797          48.000  
J07  38240508.117   200955202.487        -524.309          39.000    38240507.814   156588484.287        -408.692          46.000  
G29  26307912.028   138248974.723       -3018.185          35.000    26307920.881   107726507.170       -2351.271          30.000  
G14  25051994.071   131649104.440         360.794          38.000    25051997.111   102583748.081         281.309          36.000  
G22  25138912.186   132105884.823         927.835          38.000                                                                  
G23  24976089.387   131250239.796        2625.023          38.000    24976091.243   102272926.607        2045.771          39.000  
E30  28650086.832   150557237.745         836.590          35.000                                                                  
J04                                                                  39866756.427   163247702.149        -523.108          49.000  
> 2025 10 10 00 42 57.0030000  0 42                     
G05  21734044.564   114213151.159       -1771.710          48.000    21734043.210    88997269.259       -1380.664          47.000  
G13  21403127.622   112474170.107       -2107.759          48.000                                                                  
G15  21157507.447   111183425.583         192.516          48.000    21157505.724    86636447.707         149.987          47.000  
G18  23323077.668   122563576.612        1302.762          44.000    23323076.900    95504108.396        1015.135          44.000  
G20  23360907.061   122762355.616       -3163.887          44.000                                                                  
G21  23762611.815   124873328.847       -3044.562          42.000    23762613.547    97303909.806       -2372.027          43.000  
C01  38120009.118   198500883.502        -525.586          47.000    38120005.014   153493458.395        -406.489          48.000  
C02  40235852.370   209518627.764        -459.996          37.000    40235848.525   162013082.385        -355.695          40.000  
C06  40476625.900   210772407.180         823.712          37.000    40476627.677   162982607.006         636.737          40.000  
C08  38086359.167   198325657.658         219.170          45.000    38086351.544   153357951.365         169.639          48.000  
C13  38745894.564   201760035.058         255.899          46.000    38745895.122   156013659.767         197.621          45.000  
C16  40242978.485   209555743.514         766.605          42.000    40242982.453   162041811.188         592.819          41.000  
R14  21979820.161   117164815.251        1723.086          53.000    21979822.953    91128207.272        1340.231          50.000  
R13  23264858.501   124233035.514       -2291.746          43.000                                                                  
R05  22738821.330   121552024.422        1355.221          51.000    22738821.856    94540480.138        1054.198          47.000  
R20  22490344.255   120265974.429         965.154          40.000    22490347.376    93540221.021         750.717          49.000  
R19  21705709.935   116110901.553       -3071.039          52.000    21705708.639    90308470.054       -2388.507          50.000  
R03  22948020.985   122842542.047       -2572.221          49.000    22948021.204    95544193.844       -2000.540          46.000  
G24  23011684.672   120927194.129        2873.160          44.000    23011686.860    94229022.990        2238.756          42.000  
G30  25372473.330   133333204.034       -3640.789          36.000    25372478.695   103896036.931       -2836.584          30.000  
E07  26039216.637   136837001.104       -2306.167          45.000    26039222.124   104849149.455       -1767.139          50.000  
E19  26330189.399   138366081.840        1215.307          38.000    26330194.387   106020784.197         931.379          41.000  
E26  25398722.543   133471182.459       -2803.380          46.000    25398726.229   102270134.352       -2148.121          51.000  
E29  24550923.293   129015972.497        -358.646          47.000    24550925.948    98856402.914        -274.836          54.000  
C19  23650132.177   123152442.610         434.305          50.000                                                                  
C20  23876577.530   124331599.666       -1540.204          51.000                                                                  
C03  38486440.120   200408982.005        -519.963          43.000    38486435.219   154968919.354        -401.708          44.000  
C04  38035803.105   198062400.844        -550.827          45.000    38035796.967   153154386.931        -426.063          46.000  
C38  37134912.432   193371228.418           7.814          49.000                                                                  
C37  25156926.435   130998716.292       -1296.188          46.000                                                                  
R04  21102205.427   113001347.348        -699.781          53.000    21102202.921    87889927.349        -544.257          51.000  
R18  24407966.954   130291282.542       -4927.429          44.000    24407982.066   101337681.758       -3832.571          44.000  
R15  24236858.488   129514491.457        3688.617          44.000    24236870.795   100733630.786        2868.829          46.000  
E33  24894029.599   130819007.074        -165.873          47.000    24894032.153   100237948.500        -127.087          53.000  
J03  37963992.941   199502102.623        -326.510          45.000    37963993.237   155456202.178        -254.471          48.000  
J07  38240607.841   200955726.485        -523.290          39.000    38240607.526   156588892.616        -408.171          46.000  
G29  26308486.297   138251992.489       -3017.608          35.000    26308494.831   107728858.746       -2352.186          29.000  
G14  25051925.411   131648743.556         360.861          38.000    25051928.487   102583466.880         281.227          36.000  
G22  25138735.649   132104957.153         927.689          38.000                                                                  
G23  24975589.729   131247614.336        2625.762          38.000    24975591.659   102270880.832        2045.645          39.000  
E30  28649927.647   150556401.027         837.373          35.000                                                                  
J04                                                                  39866884.068   163248224.912        -522.522          49.000  
> 2025 10 10 00 42 58.0030000  0 42                     
G05  21734381.775   114214923.009       -1771.948          48.000    21734380.436    88998649.922       -1380.774          47.000  
G13  21403528.719   112476277.911       -2107.868          48.000                                                                  
G15  21157470.796   111183233.149         192.364          48.000    21157469.083    86636297.756         149.821          47.000  
G18  23322829.851   122562273.955        1302.231          44.000    23322828.968    95503093.340        1014.982          44.000  
G20  23361509.118   122765519.686       -3163.946          43.000                                                                  
G21  23763191.221   124876373.364       -3044.498          42.000    23763192.823    97306282.161       -2372.391          43.000  
C01  38120110.079   198501409.091        -525.498          47.000    38120105.956   153493864.809        -406.401          48.000  
C02  40235940.684   209519087.670        -460.054          37.000    40235936.799   162013438.009        -355.570          40.000  
C06  40476467.816   210771583.534         823.812          37.000    40476469.465   162981970.103         636.968          41.000  
C08  38086317.130   198325438.281         219.437          45.000    38086309.468   153357781.737         169.727          48.000  
C13  38745845.507   201759779.128         256.194          46.000    38745845.967   156013461.862         197.942          46.000  
C16  40242831.141   209554976.984         766.517          42.000    40242835.310   162041218.460         592.985          42.000  
R14  21979496.903   117163092.347        1722.745          53.000    21979499.783    91126867.241        1339.844          50.000  
R13  23265287.704   124235327.636       -2292.242          43.000                                                                  
R05  22738567.802   121550669.203        1355.341          51.000    22738568.387    94539426.086        1054.166          47.000  
R20  22490163.865   120265009.585         964.413          40.000    22490166.919    93539470.591         750.202          49.000  
R19  21706284.092   116113972.902       -3071.582          52.000    21706282.825    90310858.883       -2388.971          50.000  
R03  22948501.520   122845114.280       -2572.130          49.000    22948501.888    95546194.458       -2000.384          46.000  
G24  23011137.931   120924321.019        2872.921          44.000    23011140.060    94226784.206        2238.619          42.000  
G30  25373166.106   133336844.689       -3640.343          36.000    25373171.399   103898873.805       -2836.887          29.000  
E07  26039655.404   136839307.319       -2306.209          45.000    26039660.976   104850916.547       -1767.044          50.000  
E19  26329958.306   138364866.671        1215.427          38.000    26329963.162   106019853.116         931.054          41.000  
E26  25399256.204   133473986.095       -2803.794          46.000    25399259.896   102272282.584       -2148.317          51.000  
E29  24550991.542   129016331.260        -358.685          47.000    24550994.264    98856677.814        -274.949          54.000  
C19  23650048.768   123152008.214         434.488          50.000                                                                  
C20  23876873.276   124333139.879       -1540.206          51.000                                                                  
C03  38486539.841   200409501.464        -519.313          43.000    38486534.926   154969321.063        -401.482          45.000  
C04  38035908.763   198062951.509        -550.471          45.000    38035902.630   153154812.737        -425.719          47.000  
C38  37134910.261   193371220.529           8.009          49.000                                                                  
C37  25157175.478   131000012.777       -1296.759          46.000                                                                  
R04  21102336.114   113002047.144        -699.757          53.000    21102333.578    87890471.635        -544.213          51.000  
R18  24408889.979   130296209.907       -4927.171          44.000    24408905.105   101341514.106       -3832.134          45.000  
R15  24236168.162   129510802.761        3688.992          44.000    24236180.391   100730761.828        2868.961          46.000  
E33  24894061.335   130819173.090        -166.113          47.000    24894063.821   100238075.712        -127.302          53.000  
J03  37964055.069   199502429.100        -326.416          45.000    37964055.342   155456456.579        -254.483          48.000  
J07  38240707.510   200956250.231        -523.592          39.000    38240707.207   156589300.710        -407.983          46.000  
G29  26309060.480   138255009.941       -3017.126          35.000    26309068.976   107731209.955       -2351.086          29.000  
G14  25051856.802   131648382.847         360.371          38.000    25051859.874   102583185.773         281.471          37.000  
G22  25138559.152   132104029.528         927.994          38.000                                                                  
G23  24975089.980   131244988.574        2625.972          38.000    24975092.077   102268834.784        2046.037          39.000  
E30  28649768.480   150555564.382         836.529          35.000                                                                  
J04                                                                  39867011.715   163248747.385        -522.406          49.000  
> 2025 10 10 00 42 59.0030000  0 42                     
G05  21734718.979   114216695.256       -1772.748          48.000    21734717.706    89000030.892       -1381.451          47.000  
G13  21403929.978   112478385.943       -2108.351          48.000                                                                  
G15  21157434.312   111183041.003         191.733          48.000    21157432.437    86636148.025         149.549          47.000  
G18  23322582.105   122560971.825        1301.559          44.000    23322581.252    95502078.697        1014.265          44.000  
G20  23362111.203   122768684.061       -3164.766          43.000                                                                  
G21  23763770.560   124879418.095       -3045.009          42.000    23763772.123    97308654.690       -2373.016          43.000  
C01  38120210.992   198501934.635        -525.732          47.000    38120206.849   153494271.186        -406.448          48.000  
C02  40236028.875   209519547.529        -460.352          37.000    40236025.068   162013793.609        -355.791          40.000  
C06  40476309.587   210770759.918         823.367          37.000    40476311.395   162981333.230         636.851          40.000  
C08  38086274.928   198325218.831         219.535          45.000    38086267.378   153357612.052         169.423          48.000  
C13  38745796.200   201759523.105         255.926          46.000    38745796.781   156013263.881         197.836          45.000  
C16  40242684.044   209554210.479         766.343          42.000    40242688.191   162040625.759         592.498          41.000  
R14  21979173.747   117161370.053        1721.771          53.000    21979176.665    91125527.677        1339.142          50.000  
R13  23265717.126   124237620.509       -2293.335          43.000                                                                  
R05  22738314.260   121549314.024        1354.898          51.000    22738314.838    94538372.063        1053.762          47.000  
R20  22489983.469   120264045.531         963.506          40.000    22489986.638    93538720.780         749.317          49.000  
R19  21706858.430   116117044.898       -3072.602          52.000    21706857.115    90313248.211       -2389.862          50.000  
R03  22948982.080   122847686.527       -2572.551          49.000    22948982.457    95548195.104       -2000.914          46.000  
G24  23010591.233   120921448.215        2872.454          44.000    23010593.333    94224545.658        2238.185          42.000  
G30  25373858.996   133340485.511       -3641.279          36.000    25373864.153   103901710.834       -2837.850          29.000  
E07  26040094.291   136841613.534       -2306.544          45.000    26040099.806   104852683.642       -1767.260          50.000  
E19  26329727.038   138363651.617        1214.536          38.000    26329731.877   106018922.071         930.898          41.000  
E26  25399789.727   133476789.996       -2804.329          46.000    25399793.446   102274431.027       -2148.738          51.000  
E29  24551059.874   129016690.167        -359.165          47.000    24551062.550    98856952.819        -275.231          54.000  
C19  23649965.313   123151573.898         434.024          50.000                                                                  
C20  23877169.071   124334680.188       -1540.610          51.000                                                                  
C03  38486639.614   200410020.914        -519.647          43.000    38486634.705   154969722.741        -402.122          45.000  
C04  38036014.475   198063502.147        -550.850          45.000    38036008.393   153155238.513        -425.944          46.000  
C38  37134907.937   193371212.594           7.731          49.000                                                                  
C37  25157424.591   131001309.735       -1297.405          46.000                                                                  
R04  21102466.832   113002747.071        -700.223          53.000    21102464.366    87891016.021        -544.595          51.000  
R18  24409812.994   130301137.223       -4927.466          44.000    24409828.284   101345346.423       -3832.596          45.000  
R15  24235477.877   129507114.002        3688.610          44.000    24235490.064   100727892.820        2868.853          46.000  
E33  24894092.910   130819339.555        -166.967          47.000    24894095.528   100238203.259        -127.905          53.000  
J03  37964117.206   199502755.610        -326.699          45.000    37964117.432   155456710.998        -254.737          48.000  
J07  38240807.159   200956773.926        -524.217          39.000    38240806.861   156589708.779        -408.256          46.000  
G29  26309634.634   138258027.327       -3017.632          34.000    26309643.328   107733561.175       -2350.755          31.000  
G14  25051788.230   131648022.507         360.175          38.000    25051791.342   102582905.045         280.524          37.000  
G22  25138382.620   132103102.258         927.013          38.000                                                                  
G23  24974590.224   131242362.738        2625.490          38.000    24974592.449   102266788.673        2045.812          39.000  
E30  28649609.239   150554727.947         835.971          35.000                                                                  
J04                                                                  39867139.292   163249269.757        -522.510          49.000  
> 2025 10 10 00 43 00.0030000  0 42                     
G05  21735056.356   114218468.162       -1773.175          48.000    21735055.038    89001412.367       -1381.659          47.000  
G13  21404331.219   112480494.500       -2108.698          48.000                                                                  
G15  21157397.886   111182849.402         191.572          48.000    21157396.044    86635998.732         149.257          47.000  
G18  23322334.448   122559670.512        1301.016          44.000    23322333.623    95501064.695        1013.611          44.000  
G20  23362713.456   122771848.979       -3165.083          43.000                                                                  
G21  23764350.190   124882463.344       -3045.343          42.000    23764351.660    97311027.587       -2373.032          43.000  
C01  38120311.835   198502460.413        -525.936          47.000    38120307.866   153494677.749        -406.485          48.000  
C02  40236117.219   209520007.610        -459.810          37.000    40236113.529   162014149.380        -355.712          40.000  
C06  40476151.647   210769936.575         823.238          37.000    40476153.284   162980696.563         636.724          41.000  
C08  38086232.683   198324999.573         219.297          45.000    38086225.212   153357442.495         169.572          48.000  
C13  38745746.905   201759267.246         256.002          46.000    38745747.629   156013066.036         197.875          46.000  
C16  40242536.949   209553444.289         766.287          42.000    40242541.119   162040033.291         592.279          42.000  
R14  21978850.736   117159648.631        1721.129          53.000    21978853.682    91124188.794        1338.674          50.000  
R13  23266146.866   124239914.406       -2294.359          43.000                                                                  
R05  22738060.723   121547959.176        1354.783          51.000    22738061.396    94537318.286        1053.759          47.000  
R20  22489803.430   120263082.576         962.544          40.000    22489806.610    93537971.806         748.610          49.000  
R19  21707432.905   116120117.789       -3073.176          52.000    21707431.493    90315638.227       -2390.265          50.000  
R03  22949462.779   122850259.067       -2572.458          49.000    22949462.865    95550195.957       -2000.697          46.000  
G24  23010044.640   120918575.991        2872.154          44.000    23010046.815    94222307.564        2237.949          42.000  
G30  25374551.898   133344126.744       -3640.665          36.000    25374556.843   103904548.137       -2837.532          29.000  
E07  26040533.380   136843920.014       -2306.492          45.000    26040538.731   104854450.949       -1767.353          50.000  
E19  26329495.799   138362436.918        1214.611          38.000    26329500.622   106017991.340         930.742          41.000  
E26  25400323.519   133479594.472       -2804.616          46.000    25400326.989   102276579.904       -2148.943          51.000  
E29  24551128.230   129017049.503        -359.437          47.000    24551130.926    98857228.153        -275.446          54.000  
C19  23649881.993   123151139.924         433.943          50.000                                                                  
C20  23877464.922   124336220.876       -1540.812          51.000                                                                  
C03  38486739.340   200410540.575        -519.524          43.000    38486734.517   154970124.563        -401.901          45.000  
C04  38036120.264   198064053.002        -550.766          45.000    38036114.175   153155664.468        -425.964          47.000  
C38  37134906.187   193371204.894           7.747          49.000                                                                  
C37  25157673.826   131002607.452       -1297.815          46.000                                                                  
R04  21102597.605   113003447.386        -700.329          53.000    21102595.098    87891560.704        -544.733          51.000  
R18  24410736.193   130306064.760       -4927.583          45.000    24410751.333   101349178.897       -3832.501          45.000  
R15  24234787.610   129503425.486        3688.743          44.000    24234799.699   100725024.009        2868.774          45.000  
E33  24894124.895   130819506.726        -167.488          47.000    24894127.303   100238331.348        -128.316          53.000  
J03  37964179.401   199503082.431        -326.945          45.000    37964179.730   155456965.655        -254.661          48.000  
J07  38240906.872   200957297.817        -523.535          39.000    38240906.590   156590117.015        -408.181          46.000  
G29  26310208.765   138261044.942       -3017.460          34.000    26310217.829   107735912.536       -2351.639          31.000  
G14  25051719.711   131647662.898         359.429          38.000    25051722.879   102582624.840         279.550          36.000  
G22  25138206.221   132102175.565         926.718          38.000                                                                  
G23  24974090.685   131239737.112        2625.238          38.000    24974092.857   102264742.743        2045.609          39.000  
E30  28649450.233   150553892.090         835.354          35.000                                                                  
J04                                                                  39867266.936   163249792.250        -522.455          49.000  
> 2025 10 10 00 43 01.0030000  0 42                     
G05  21735393.795   114220241.368       -1773.425          48.000    21735392.501    89002794.086       -1381.775          47.000  
G13  21404732.569   112482603.190       -2108.876          48.000                                                                  
G15  21157361.432   111182658.008         191.197          48.000    21157359.693    86635849.593         148.973          47.000  
G18  23322086.909   122558369.629        1300.567          44.000    23322086.147    95500051.019        1013.458          44.000  
G20  23363315.742   122775014.082       -3165.268          43.000                                                                  
G21  23764929.716   124885508.703       -3045.496          42.000    23764931.208    97313400.591       -2373.179          43.000  
C01  38120412.967   198502986.026        -525.584          47.000    38120408.850   153495084.193        -406.503          48.000  
C02  40236205.641   209520467.599        -460.048          37.000    40236201.807   162014505.044        -355.548          40.000  
C06  40475993.452   210769113.129         823.452          37.000    40475995.145   162980059.827         636.929          40.000  
C08  38086190.670   198324780.133         219.412          45.000    38086183.026   153357272.804         169.700          48.000  
C13  38745697.751   201759011.222         256.114          46.000    38745698.405   156012868.055         198.137          45.000  
C16  40242390.022   209552678.031         766.403          42.000    40242393.978   162039440.768         592.522          41.000  
R14  21978527.941   117157927.727        1720.507          53.000    21978530.901    91122850.322        1338.145          50.000  
R13  23266576.554   124242208.925       -2294.949          43.000                                                                  
R05  22737807.301   121546604.286        1354.795          51.000    22737807.808    94536264.493        1053.683          47.000  
R20  22489623.416   120262120.304         961.936          40.000    22489626.708    93537223.373         748.158          49.000  
R19  21708007.444   116123191.219       -3073.743          52.000    21708005.994    90318028.672       -2390.698          50.000  
R03  22949943.232   122852831.535       -2572.562          49.000    22949943.449    95552196.774       -2001.070          46.000  
G24  23009498.123   120915703.980        2871.946          44.000    23009500.276    94220069.627        2237.861          42.000  
G30  25375244.866   133347768.049       -3641.431          36.000    25375249.702   103907385.506       -2837.732          29.000  
E07  26040972.090   136846226.408       -2306.523          45.000    26040977.573   104856218.178       -1767.218          50.000  
E19  26329264.652   138361222.304        1214.120          38.000    26329269.487   106017060.665         930.514          41.000  
E26  25400857.175   133482399.129       -2804.801          46.000    25400860.749   102278728.925       -2149.170          51.000  
E29  24551196.423   129017408.876        -359.497          47.000    24551199.301    98857503.516        -275.445          54.000  
C19  23649798.628   123150705.924         434.062          50.000                                                                  
C20  23877760.799   124337761.560       -1540.809          51.000                                                                  
C03  38486839.032   200411060.110        -519.609          43.000    38486834.350   154970526.297        -401.600          45.000  
C04  38036226.024   198064603.720        -550.714          45.000    38036219.966   153156090.325        -425.925          46.000  
C38  37134904.861   193371197.060           7.787          49.000                                                                  
C37  25157923.168   131003905.558       -1298.278          46.000                                                                  
R04  21102728.370   113004147.738        -700.452          53.000    21102725.781    87892105.424        -544.744          51.000  
R18  24411659.388   130310992.104       -4927.350          45.000    24411674.558   101353011.246       -3832.465          45.000  
R15  24234097.258   129499736.857        3688.710          44.000    24234109.387   100722155.096        2868.865          45.000  
E33  24894156.513   130819674.211        -167.726          47.000    24894159.146   100238459.686        -128.536          53.000  
J03  37964241.522   199503409.186        -326.760          45.000    37964241.942   155457220.265        -254.554          48.000  
J07  38241006.522   200957821.600        -523.756          39.000    38241006.217   156590525.148        -408.106          46.000  
G29  26310783.061   138264062.394       -3017.558          34.000    26310792.132   107738263.760       -2351.467          32.000  
G14  25051651.417   131647303.583         359.119          38.000    25051654.423   102582344.825         279.972          36.000  
G22  25138029.884   132101249.108         926.440          38.000                                                                  
G23  24973590.979   131237111.288        2625.976          38.000    24973593.142   102262696.643        2046.113          39.000  
E30  28649291.197   150553056.378         835.315          35.000                                                                  
J04                                                                  39867394.489   163250314.569        -522.290          49.000  
> 2025 10 10 00 43 02.0030000  0 42                     
G05  21735731.317   114222014.985       -1773.853          48.000    21735730.002    89004176.128       -1382.227          47.000  
G13  21405133.881   112484712.151       -2109.052          48.000                                                                  
G15  21157325.198   111182466.917         190.948          48.000    21157323.222    86635700.693         148.729          47.000  
G18  23321839.425   122557069.318        1299.902          44.000    23321838.719    95499037.788        1012.902          44.000  
G20  23363918.109   122778179.490       -3165.560          43.000                                                                  
G21  23765509.225   124888554.322       -3045.741          42.000    23765510.697    97315773.789       -2373.217          43.000  
C01  38120514.005   198503511.654        -525.775          47.000    38120509.788   153495490.624        -406.384          48.000  
C02  40236293.895   209520927.529        -459.932          37.000    40236290.108   162014860.711        -355.858          40.000  
C06  40475835.331   210768289.741         823.125          37.000    40475837.039   162979423.136         636.657          40.000  
C08  38086148.477   198324560.611         219.522          45.000    38086140.899   153357103.056         169.794          48.000  
C13  38745648.540   201758755.116         256.096          46.000    38745649.248   156012670.017         198.170          45.000  
C16  40242242.873   209551911.844         766.194          42.000    40242246.796   162038848.298         592.537          41.000  
R14  21978205.251   117156207.519        1719.802          53.000    21978208.180    91121512.379        1337.656          50.000  
R13  23267006.361   124244504.208       -2295.712          43.000                                                                  
R05  22737553.917   121545249.496        1354.694          51.000    22737554.249    94535210.759        1053.716          47.000  
R20  22489443.602   120261158.866         960.733          40.000    22489446.844    93536475.581         747.480          49.000  
R19  21708582.170   116126265.308       -3074.475          52.000    21708580.695    90320419.622       -2391.132          50.000  
R03  22950423.771   122855404.056       -2572.513          49.000    22950423.961    95554197.605       -2000.757          46.000  
G24  23008951.601   120912832.276        2871.773          44.000    23008953.754    94217831.950        2237.601          42.000  
G30  25375937.882   133351409.496       -3641.475          36.000    25375942.701   103910222.940       -2837.045          30.000  
E07  26041411.098   136848532.823       -2306.401          45.000    26041416.406   104857985.430       -1767.246          49.000  
E19  26329033.544   138360007.758        1214.406          38.000    26329038.418   106016130.053         930.483          40.000  
E26  25401390.810   133485204.096       -2805.149          46.000    25401394.438   102280878.183       -2149.348          51.000  
E29  24551265.029   129017768.437        -359.761          47.000    24551267.656    98857779.017        -275.550          53.000  
C19  23649715.378   123150272.032         433.899          50.000                                                                  
C20  23878056.794   124339302.365       -1540.888          51.000                                                                  
C03  38486938.752   200411579.614        -519.391          43.000    38486934.025   154970928.033        -401.812          45.000  
C04  38036331.913   198065154.431        -550.688          45.000    38036325.683   153156516.170        -425.958          46.000  
C38  37134903.214   193371189.209           7.765          49.000                                                                  
C37  25158172.559   131005204.171       -1298.972          46.000                                                                  
R04  21102859.237   113004848.263        -700.562          53.000    21102856.646    87892650.278        -544.847          51.000  
R18  24412582.523   130315919.435       -4927.289          45.000    24412597.723   101356843.560       -3832.392          45.000  
R15  24233406.912   129496048.250        3688.581          44.000    24233419.052   100719286.191        2868.972          45.000  
E33  24894188.756   130819842.178        -168.272          47.000    24894191.117   100238588.378        -128.826          52.000  
J03  37964303.604   199503736.006        -326.861          45.000    37964304.108   155457474.925        -254.653          48.000  
J07  38241106.172   200958345.336        -523.753          39.000    38241105.877   156590933.256        -408.178          46.000  
G29  26311357.368   138267079.761       -3017.377          35.000    26311366.427   107740614.948       -2350.714          32.000  
G14  25051583.085   131646944.709         358.599          38.000    25051586.195   102582065.176         279.595          37.000  
G22  25137853.597   132100322.984         926.399          38.000                                                                  
G23  24973091.330   131234485.433        2625.896          38.000    24973093.453   102260650.550        2046.201          39.000  
E30  28649132.107   150552220.963         835.447          35.000                                                                  
J04                                                                  39867521.935   163250836.810        -522.125          49.000  
> 2025 10 10 00 43 03.0030000  0 42                     
G05  21736068.881   114223788.949       -1774.072          48.000    21736067.531    89005558.438       -1382.471          47.000  
G13  21405535.272   112486821.312       -2109.192          48.000                                                                  
G15  21157288.878   111182276.081         190.658          48.000    21157286.920    86635551.977         148.805          47.000  
G18  23321592.111   122555769.490        1299.663          44.000    23321591.349    95498024.929        1012.775          44.000  
G20  23364520.486   122781345.145       -3165.662          43.000                                                                  
G21  23766088.850   124891600.123       -3045.979          42.000    23766090.357    97318147.138       -2373.502          43.000  
C01  38120614.908   198504037.164        -525.455          47.000    38120610.732   153495896.991        -406.266          48.000  
C02  40236382.186   209521387.407        -459.818          37.000    40236378.338   162015216.303        -355.785          40.000  
C06  40475677.186   210767466.325         823.418          37.000    40475678.887   162978786.428         636.617          41.000  
C08  38086106.309   198324340.968         219.778          45.000    38086098.737   153356933.218         169.940          48.000  
C13  38745599.330   201758498.893         256.265          46.000    38745600.063   156012471.888         198.279          46.000  
C16  40242095.678   209551145.657         766.150          42.000    40242099.660   162038255.826         592.610          42.000  
R14  21977882.631   117154487.920        1719.353          53.000    21977885.615    91120174.920        1337.255          50.000  
R13  23267436.341   124246800.213       -2296.402          43.000                                                                  
R05  22737300.515   121543894.717        1354.800          51.000    22737300.857    94534157.052        1053.639          47.000  
R20  22489263.995   120260198.185         960.325          40.000    22489267.191    93535728.386         746.813          49.000  
R19  21709156.867   116129339.986       -3074.915          52.000    21709155.394    90322811.042       -2391.705          50.000  
R03  22950904.358   122857976.582       -2572.483          49.000    22950904.487    95556198.459       -2000.886          46.000  
G24  23008405.208   120909960.869        2871.281          44.000    23008407.343    94215594.489        2237.250          42.000  
G30  25376630.981   133355051.097       -3641.445          36.000    25376635.597   103913060.630       -2838.532          30.000  
E07  26041849.935   136850839.199       -2306.218          45.000    26041855.385   104859752.656       -1767.264          50.000  
E19  26328802.375   138358793.302        1214.676          38.000    26328807.308   106015199.488         930.551          41.000  
E26  25401924.784   133488009.316       -2805.237          46.000    25401928.315   102283027.632       -2149.492          52.000  
E29  24551333.451   129018128.097        -359.693          47.000    24551336.179    98858054.599        -275.555          54.000  
C19  23649632.054   123149838.179         433.854          50.000                                                                  
C20  23878352.678   124340843.232       -1540.865          51.000                                                                  
C03  38487038.565   200412099.056        -519.493          43.000    38487033.821   154971329.676        -401.807          45.000  
C04  38036437.614   198065705.053        -550.413          45.000    38036431.419   153156941.951        -425.895          47.000  
C38  37134902.089   193371181.272           8.022          49.000                                                                  
C37  25158422.110   131006503.229       -1299.241          46.000                                                                  
R04  21102990.146   113005548.894        -700.593          53.000    21102987.537    87893195.216        -544.929          51.000  
R18  24413505.551   130320846.662       -4927.161          45.000    24413520.763   101360675.795       -3832.296          45.000  
R15  24232716.515   129492359.538        3688.967          44.000    24232728.775   100716417.220        2868.985          45.000  
E33  24894220.586   130820010.517        -168.401          47.000    24894223.208   100238717.368        -129.070          53.000  
J03  37964365.785   199504062.814        -326.777          45.000    37964366.322   155457729.586        -254.649          48.000  
J07  38241205.831   200958868.995        -523.665          39.000    38241205.499   156591341.303        -408.055          46.000  
G29  26311931.676   138270097.062       -3017.356          35.000    26311940.811   107742966.124       -2351.760          31.000  
G14  25051514.887   131646586.211         358.243          38.000    25051518.024   102581785.836         278.844          36.000  
G22  25137677.353   132099397.142         925.827          38.000                                                                  
G23  24972591.523   131231859.482        2626.147          38.000    24972593.718   102258604.322        2046.687          39.000  
E30  28648973.271   150551385.768         835.559          35.000                                                                  
J04                                                                  39867649.424   163251358.934        -522.095          49.000  
> 2025 10 10 00 43 04.0030000  0 42                     
G05  21736406.501   114225563.652       -1774.951          48.000    21736405.223    89006941.324       -1383.154          47.000  
G13  21405936.719   112488931.065       -2110.029          48.000                                                                  
G15  21157252.592   111182085.879         189.917          48.000    21157250.730    86635403.780         147.967          47.000  
G18  23321344.927   122554470.579        1298.216          44.000    23321344.076    95497012.778        1011.840          44.000  
G20  23365123.048   122784511.437       -3166.524          44.000                                                                  
G21  23766668.563   124894646.485       -3046.415          42.000    23766670.059    97320520.921       -2373.966          43.000  
C01  38120715.714   198504562.995        -525.904          47.000    38120711.697   153496303.602        -406.782          48.000  
C02  40236470.545   209521847.567        -460.356          37.000    40236466.674   162015572.116        -355.750          40.000  
C06  40475519.294   210766643.271         822.913          37.000    40475520.771   162978149.982         636.293          40.000  
C08  38086064.282   198324121.619         219.345          45.000    38086056.685   153356763.606         169.571          48.000  
C13  38745550.161   201758242.906         255.919          46.000    38745550.977   156012273.950         197.875          45.000  
C16  40241948.634   209550379.851         765.540          42.000    40241952.549   162037663.662         592.106          41.000  
R14  21977560.248   117152769.310        1718.132          53.000    21977563.197    91118838.227        1336.348          50.000  
R13  23267866.494   124249097.295       -2297.715          43.000                                                                  
R05  22737047.123   121542540.364        1354.058          51.000    22737047.511    94533103.664        1053.206          47.000  
R20  22489084.556   120259238.678         958.628          40.000    22489087.770    93534982.089         745.856          49.000  
R19  21709731.769   116132415.674       -3076.147          52.000    21709730.290    90325203.236       -2392.542          50.000  
R03  22951385.060   122860549.513       -2573.100          49.000    22951385.160    95558199.628       -2001.434          46.000  
G24  23007858.930   120907090.103        2870.500          44.000    23007861.019    94213357.526        2236.604          42.000  
G30  25377324.064   133358693.172       -3642.585          36.000    25377328.563   103915898.555       -2838.104          30.000  
E07  26042288.709   136853145.937       -2306.940          45.000    26042294.405   104861520.150       -1767.642          50.000  
E19  26328571.457   138357579.340        1213.950          38.000    26328576.335   106014269.314         930.016          41.000  
E26  25402458.636   133490815.172       -2806.163          46.000    25402462.284   102285177.569       -2150.185          51.000  
E29  24551401.977   129018488.255        -360.325          47.000    24551404.678    98858330.570        -276.166          54.000  
C19  23649548.848   123149404.744         433.361          50.000                                                                  
C20  23878648.781   124342384.542       -1541.560          51.000                                                                  
C03  38487138.403   200412618.770        -519.526          43.000    38487133.563   154971731.560        -402.007          45.000  
C04  38036543.380   198066256.004        -551.055          45.000    38036537.210   153157367.964        -426.093          47.000  
C38  37134901.130   193371173.649           7.502          49.000                                                                  
C37  25158671.682   131007803.125       -1300.225          46.000                                                                  
R04  21103121.032   113006250.016        -701.324          53.000    21103118.507    87893740.527        -545.464          51.000  
R18  24414428.834   130325774.178       -4927.593          44.000    24414443.912   101364508.260       -3832.556          45.000  
R15  24232026.184   129488671.136        3688.213          43.000    24232038.591   100713548.494        2868.635          46.000  
E33  24894252.741   130820179.654        -169.447          47.000    24894255.338   100238846.969        -129.944          53.000  
J03  37964428.043   199504390.017        -327.468          45.000    37964428.666   155457984.545        -255.121          48.000  
J07  38241305.515   200959392.971        -524.027          39.000    38241305.147   156591749.583        -408.415          46.000  
G29  26312505.812   138273114.628       -3017.841          36.000    26312515.150   107745317.488       -2351.927          30.000  
G14  25051446.891   131646228.456         357.072          38.000    25051449.981   102581507.085         278.281          36.000  
G22  25137501.356   132098471.991         924.626          38.000                                                                  
G23  24972091.839   131229233.782        2625.939          38.000    24972094.130   102256558.352        2045.864          39.000  
E30  28648814.325   150550551.274         833.616          35.000                                                                  
J04                                                                  39867776.984   163251881.227        -522.333          49.000  
> 2025 10 10 00 43 05.0030000  0 42                     
G05  21736744.311   114227338.752       -1775.000          48.000    21736743.083    89008324.506       -1383.008          47.000  
G13  21406338.147   112491041.047       -2109.691          48.000                                                                  
G15  21157216.442   111181895.955         190.113          48.000    21157214.652    86635255.795         148.047          47.000  
G18  23321097.856   122553172.165        1298.343          44.000    23321096.977    95496001.048        1011.655          44.000  
G20  23365725.652   122787678.000       -3166.333          43.000                                                                  
G21  23767248.343   124897693.079       -3046.337          42.000    23767249.829    97322894.886       -2373.840          43.000  
C01  38120816.726   198505088.789        -525.414          47.000    38120812.635   153496710.173        -406.432          48.000  
C02  40236558.956   209522307.690        -460.026          37.000    40236555.023   162015927.918        -355.566          40.000  
C06  40475361.206   210765820.223         822.993          37.000    40475362.733   162977513.552         636.685          41.000  
C08  38086022.066   198323902.202         219.737          45.000    38086014.501   153356593.930         170.022          48.000  
C13  38745501.042   201757986.839         256.422          46.000    38745501.805   156012075.944         198.258          46.000  
C16  40241801.557   209549614.074         765.984          42.000    40241805.442   162037071.525         592.310          42.000  
R14  21977238.095   117151051.346        1717.977          53.000    21977240.941    91117502.036        1336.186          50.000  
R13  23268296.858   124251395.111       -2297.971          43.000                                                                  
R05  22736793.705   121541186.062        1354.694          51.000    22736794.181    94532050.316        1053.666          47.000  
R20  22488905.184   120258279.928         958.792          41.000    22488908.533    93534236.417         745.529          49.000  
R19  21710306.880   116135492.005       -3076.374          52.000    21710305.392    90327595.934       -2392.676          50.000  
R03  22951865.781   122863122.481       -2572.722          49.000    22951865.797    95560200.811       -2000.857          46.000  
G24  23007312.702   120904219.642        2870.612          44.000    23007314.771    94211120.791        2237.124          42.000  
G30  25378017.158   133362335.406       -3642.401          36.000    25378021.765   103918736.666       -2838.901          30.000  
E07  26042727.679   136855452.655       -2306.316          45.000    26042733.323   104863287.641       -1767.325          50.000  
E19  26328340.498   138356365.474        1214.030          38.000    26328345.268   106013339.188         930.409          41.000  
E26  25402992.684   133493621.307       -2805.970          46.000    25402996.333   102287327.726       -2150.050          52.000  
E29  24551470.725   129018848.557        -360.100          47.000    24551473.200    98858606.646        -275.873          54.000  
C19  23649465.594   123148971.387         433.576          50.000                                                                  
C20  23878944.860   124343925.942       -1541.142          51.000                                                                  
C03  38487238.201   200413138.477        -519.545          43.000    38487233.337   154972133.413        -401.138          45.000  
C04  38036649.186   198066806.890        -550.591          45.000    38036642.967   153157793.947        -425.782          47.000  
C38  37134900.245   193371165.987           7.958          49.000                                                                  
C37  25158921.349   131009103.500       -1300.241          46.000                                                                  
R04  21103251.977   113006951.248        -700.950          53.000    21103249.294    87894285.930        -545.215          51.000  
R18  24415351.899   130330701.619       -4927.018          44.000    24415367.000   101368340.661       -3832.091          45.000  
R15  24231335.974   129484982.680        3688.847          44.000    24231348.256   100710679.727        2868.833          46.000  
E33  24894285.116   130820349.208        -169.423          47.000    24894287.608   100238976.890        -129.893          53.000  
J03  37964490.329   199504717.237        -326.891          45.000    37964490.804   155458239.527        -254.816          48.000  
J07  38241405.202   200959916.862        -523.443          39.000    38241404.924   156592157.829        -408.050          46.000  
G29  26313080.057   138276132.138       -3017.368          36.000    26313089.230   107747668.789       -2351.025          30.000  
G14  25051378.856   131645871.109         357.388          38.000    25051382.037   102581228.628         278.473          37.000  
G22  25137325.399   132097547.134         924.860          38.000                                                                  
G23  24971592.141   131226608.031        2626.261          38.000    24971594.480   102254512.344        2046.053          39.000  
E30  28648655.681   150549716.967         834.639          35.000                                                                  
J04                                                                  39867904.570   163252403.427        -521.924          49.000  
> 2025 10 10 00 43 06.0030000  0 42                     
G05  21737082.184   114229114.107       -1775.561          48.000    21737080.878    89009707.903       -1383.582          47.000  
G13  21406739.786   112493151.155       -2110.163          48.000                                                                  
G15  21157180.397   111181706.201         189.646          48.000    21157178.604    86635107.930         147.771          47.000  
G18  23320850.843   122551874.181        1297.791          45.000    23320849.939    95494989.631        1011.258          44.000  
G20  23366328.364   122790844.738       -3166.960          44.000                                                                  
G21  23767828.147   124900739.772       -3046.665          42.000    23767829.589    97325268.922       -2374.074          43.000  
C01  38120917.728   198505614.411        -525.465          47.000    38120913.600   153497116.614        -406.468          48.000  
C02  40236647.222   209522767.630        -460.065          37.000    40236643.362   162016283.579        -355.658          40.000  
C06  40475203.199   210764997.071         823.274          37.000    40475204.731   162976877.045         636.503          40.000  
C08  38085979.874   198323682.593         219.618          45.000    38085972.368   153356424.119         169.859          48.000  
C13  38745451.892   201757730.572         256.315          46.000    38745452.640   156011877.774         198.211          45.000  
C16  40241654.304   209548848.221         765.840          42.000    40241658.332   162036479.315         592.097          41.000  
R14  21976915.863   117149333.900        1717.158          53.000    21976918.720    91116166.245        1335.589          50.000  
R13  23268727.317   124253693.549       -2298.854          43.000                                                                  
R05  22736540.178   121539831.716        1354.325          51.000    22736540.918    94530996.936        1053.333          48.000  
R20  22488726.053   120257321.891         957.926          41.000    22488729.369    93533491.269         744.938          49.000  
R19  21710882.017   116138568.847       -3077.045          52.000    21710880.592    90329989.033       -2393.256          50.000  
R03  22952346.459   122865695.356       -2572.824          49.000    22952346.503    95562201.940       -2001.142          46.000  
G24  23006766.534   120901349.364        2870.234          44.000    23006768.561    94208884.228        2236.670          42.000  
G30  25378710.251   133365977.641       -3642.198          36.000    25378714.891   103921574.766       -2838.250          30.000  
E07  26043166.489   136857759.265       -2306.463          45.000    26043172.212   104865055.036       -1767.351          50.000  
E19  26328109.413   138355151.551        1214.077          38.000    26328114.248   106012409.065         930.311          41.000  
E26  25403526.842   133496427.610       -2806.326          46.000    25403530.327   102289478.007       -2150.323          52.000  
E29  24551539.225   129019208.888        -360.311          47.000    24551541.843    98858882.741        -276.085          54.000  
C19  23649382.266   123148537.983         433.342          50.000                                                                  
C20  23879240.737   124345467.328       -1541.422          51.000                                                                  
C03  38487337.940   200413658.010        -519.536          43.000    38487333.136   154972535.158        -401.867          45.000  
C04  38036754.817   198067357.624        -550.560          45.000    38036748.763   153158219.805        -425.736          47.000  
C38  37134899.167   193371158.163           7.900          49.000                                                                  
C37  25159171.038   131010404.239       -1300.813          46.000                                                                  
R04  21103382.964   113007652.476        -701.240          53.000    21103380.294    87894831.328        -545.381          51.000  
R18  24416274.815   130335628.874       -4927.031          44.000    24416290.076   101372172.930       -3832.220          45.000  
R15  24230645.544   129481294.076        3688.614          44.000    24230657.931   100707810.830        2868.882          46.000  
E33  24894317.472   130820519.093        -169.938          47.000    24894319.962   100239107.056        -130.275          53.000  
J03  37964552.594   199505044.381        -327.090          45.000    37964553.073   155458494.434        -254.848          48.000  
J07  38241504.900   200960440.645        -523.799          39.000    38241504.661   156592565.936        -407.975          46.000  
G29  26313654.326   138279149.446       -3017.143          36.000    26313663.400   107750019.898       -2350.327          30.000  
G14  25051310.914   131645514.050         357.100          38.000    25051314.099   102580950.406         278.206          37.000  
G22  25137149.426   132096622.477         924.562          38.000                                                                  
G23  24971092.476   131223982.092        2626.053          38.000    24971094.727   102252466.144        2046.181          39.000  
E30  28648497.076   150548882.837         834.175          35.000                                                                  
J04                                                                  39868032.031   163252925.431        -521.893          49.000  
> 2025 10 10 00 43 07.0030000  0 42                     
G05  21737420.053   114230889.805       -1775.946          48.000    21737418.760    89011091.566       -1383.905          47.000  
G13  21407141.400   112495261.444       -2110.474          48.000                                                                  
G15  21157144.324   111181516.687         189.260          48.000    21157142.551    86634960.257         147.421          47.000  
G18  23320604.010   122550576.688        1297.124          45.000    23320603.044    95493978.588        1010.758          44.000  
G20  23366931.110   122794011.702       -3167.173          44.000                                                                  
G21  23768407.986   124903786.640       -3047.106          42.000    23768409.338    97327643.106       -2374.532          43.000  
C01  38121018.542   198506139.946        -525.552          47.000    38121014.542   153497522.984        -406.305          48.000  
C02  40236735.606   209523227.489        -459.673          37.000    40236731.648   162016639.169        -355.515          40.000  
C06  40475045.051   210764173.867         823.250          37.000    40475046.677   162976240.500         636.316          40.000  
C08  38085937.599   198323462.831         219.884          45.000    38085930.170   153356254.194         169.887          48.000  
C13  38745402.693   201757474.145         256.381          46.000    38745403.390   156011679.494         198.177          45.000  
C16  40241507.312   209548082.357         765.680          42.000    40241511.248   162035887.090         592.275          41.000  
R14  21976593.796   117147617.051        1716.482          53.000    21976596.565    91114830.916        1335.016          50.000  
R13  23269157.869   124255992.672       -2299.681          43.000                                                                  
R05  22736286.722   121538477.378        1354.199          51.000    22736287.591    94529943.566        1053.291          48.000  
R20  22488547.093   120256364.625         956.543          40.000    22488550.301    93532746.717         744.122          49.000  
R19  21711457.272   116141646.295       -3077.777          52.000    21711455.987    90332382.595       -2393.842          50.000  
R03  22952827.123   122868268.215       -2572.872          49.000    22952827.071    95564203.049       -2001.174          46.000  
G24  23006220.355   120898479.342        2869.981          44.000    23006222.394    94206647.855        2236.244          42.000  
G30  25379403.396   133369619.991       -3642.339          36.000    25379407.971   103924412.953       -2838.402          30.000  
E07  26043605.504   136860065.833       -2306.616          45.000    26043611.213   104866822.402       -1767.462          49.000  
E19  26327878.404   138353937.761        1213.477          38.000    26327883.247   106011479.018         929.705          40.000  
E26  25404060.821   133499234.159       -2806.766          46.000    25404064.381   102291628.471       -2150.610          51.000  
E29  24551607.684   129019569.313        -360.491          47.000    24551610.444    98859158.917        -276.295          53.000  
C19  23649299.208   123148104.607         433.305          50.000                                                                  
C20  23879536.720   124347008.758       -1541.488          51.000                                                                  
C03  38487437.746   200414177.444        -519.492          43.000    38487432.920   154972936.803        -401.818          45.000  
C04  38036860.469   198067908.266        -550.692          45.000    38036854.575   153158645.599        -425.793          47.000  
C38  37134897.780   193371150.248           7.949          49.000                                                                  
C37  25159420.807   131011705.417       -1301.521          46.000                                                                  
R04  21103513.876   113008353.782        -701.412          53.000    21103511.389    87895376.787        -545.571          51.000  
R18  24417197.905   130340556.016       -4927.167          44.000    24417213.171   101376005.085       -3832.222          45.000  
R15  24229955.327   129477605.386        3688.771          44.000    24229967.614   100704941.886        2868.877          46.000  
E33  24894349.848   130820689.353        -170.581          47.000    24894352.400   100239237.512        -130.679          52.000  
J03  37964614.864   199505371.518        -327.349          45.000    37964615.401   155458749.341        -255.029          48.000  
J07  38241604.570   200960964.277        -523.401          39.000    38241604.229   156592973.979        -408.064          46.000  
G29  26314228.385   138282166.684       -3017.578          36.000    26314237.914   107752371.027       -2351.661          31.000  
G14  25051243.067   131645157.362         356.625          38.000    25051246.185   102580672.497         277.300          37.000  
G22  25136973.501   132095698.098         923.859          38.000                                                                  
G23  24970592.685   131221356.036        2626.101          38.000    24970595.025   102250419.855        2046.358          39.000  
E30  28648338.601   150548048.937         833.377          35.000                                                                  
J04                                                                  39868159.449   163253447.307        -521.881          49.000  
> 2025 10 10 00 43 08.0030000  0 42                     
G05  21737757.998   114232666.070       -1776.569          48.000    21737756.885    89012475.671       -1384.503          47.000  
G13  21407543.019   112497372.146       -2111.112          48.000                                                                  
G15  21157108.366   111181327.622         188.666          48.000    21157106.675    86634812.925         147.104          47.000  
G18  23320357.266   122549279.891        1296.316          45.000    23320356.290    95492968.093        1010.323          44.000  
G20  23367533.834   122797179.122       -3167.852          44.000                                                                  
G21  23768987.829   124906833.892       -3047.521          42.000    23768989.285    97330017.590       -2374.883          43.000  
C01  38121119.435   198506665.598        -525.817          47.000    38121115.441   153497929.458        -406.700          48.000  
C02  40236824.039   209523687.489        -460.273          37.000    40236820.019   162016994.870        -355.834          40.000  
C06  40474886.957   210763350.866         822.837          37.000    40474888.593   162975604.095         636.257          40.000  
C08  38085895.423   198323243.178         219.488          45.000    38085887.998   153356084.337         169.749          48.000  
C13  38745353.334   201757217.798         256.214          46.000    38745354.176   156011481.266         198.102          45.000  
C16  40241360.384   209547316.692         765.413          42.000    40241364.214   162035295.037         591.887          41.000  
R14  21976271.908   117145900.992        1715.470          53.000    21976274.694    91113496.208        1334.198          50.000  
R13  23269588.553   124258292.720       -2300.731          43.000                                                                  
R05  22736033.399   121537123.286        1353.796          51.000    22736034.262    94528890.381        1053.047          48.000  
R20  22488368.240   120255408.288         955.985          40.000    22488371.370    93532002.918         743.317          49.000  
R19  21712032.853   116144724.523       -3078.662          52.000    21712031.337    90334776.776       -2394.623          50.000  
R03  22953307.841   122870841.281       -2573.334          49.000    22953307.774    95566204.308       -2001.376          46.000  
G24  23005674.288   120895609.800        2869.291          44.000    23005676.372    94204411.834        2235.893          42.000  
G30  25380096.523   133373262.668       -3642.703          36.000    25380101.139   103927251.393       -2839.004          30.000  
E07  26044044.691   136862372.565       -2306.943          45.000    26044050.233   104868589.890       -1767.573          50.000  
E19  26327647.617   138352724.241        1213.274          38.000    26327652.363   106010549.175         929.650          41.000  
E26  25404595.199   133502041.147       -2807.347          46.000    25404598.559   102293779.281       -2151.051          52.000  
E29  24551676.370   129019930.059        -360.971          47.000    24551679.110    98859435.327        -276.574          54.000  
C19  23649216.021   123147671.477         432.896          50.000                                                                  
C20  23879832.835   124348550.463       -1542.000          51.000                                                                  
C03  38487537.498   200414697.020        -519.955          43.000    38487532.715   154973338.547        -401.582          45.000  
C04  38036966.181   198068459.030        -550.782          45.000    38036960.362   153159071.494        -426.063          47.000  
C38  37134896.076   193371142.469           7.569          49.000                                                                  
C37  25159670.755   131013007.246       -1302.253          46.000                                                                  
R04  21103644.858   113009055.388        -701.854          53.000    21103642.455    87895922.477        -545.909          51.000  
R18  24418120.952   130345483.247       -4927.333          44.000    24418136.218   101379837.328       -3832.455          45.000  
R15  24229265.059   129473916.846        3688.381          44.000    24229277.379   100702073.053        2868.685          46.000  
E33  24894382.472   130820860.216        -171.256          47.000    24894384.979   100239368.428        -131.186          53.000  
J03  37964677.141   199505698.845        -327.613          45.000    37964677.693   155459004.399        -255.182          48.000  
J07  38241704.284   200961488.064        -524.016          39.000    38241703.911   156593382.115        -408.261          46.000  
G29  26314802.417   138285183.990       -3017.349          35.000    26314812.795   107754722.110       -2350.962          32.000  
G14  25051175.356   131644801.264         356.068          38.000    25051178.463   102580395.003         277.240          37.000  
G22  25136797.631   132094774.190         923.635          38.000                                                                  
G23  24970092.923   131218730.040        2626.276          39.000    24970095.315   102248373.653        2046.119          39.000  
E30  28648179.818   150547215.441         833.414          35.000                                                                  
J04                                                                  39868286.901   163253969.214        -522.009          49.000  
> 2025 10 10 00 43 09.0030000  0 42                     
G05  21738096.109   114234442.790       -1776.831          48.000    21738095.053    89013860.119       -1384.412          47.000  
G13  21407944.727   112499483.153       -2110.992          48.000                                                                  
G15  21157072.352   111181138.919         188.560          48.000    21157070.639    86634665.893         146.897          47.000  
G18  23320110.565   122547983.711        1295.962          44.000    23320109.601    95491958.083        1009.869          44.000  
G20  23368136.675   122800346.896       -3167.814          44.000                                                                  
G21  23769567.717   124909881.459       -3047.699          42.000    23769569.257    97332392.299       -2374.662          43.000  
C01  38121220.498   198507191.280        -525.606          47.000    38121216.434   153498335.945        -406.345          47.000  
C02  40236912.415   209524147.499        -460.010          37.000    40236908.353   162017350.571        -355.734          39.000  
C06  40474728.924   210762527.946         822.918          37.000    40474730.532   162974967.759         636.400          40.000  
C08  38085853.373   198323023.506         219.846          45.000    38085845.853   153355914.475         169.891          47.000  
C13  38745304.135   201756961.414         256.461          46.000    38745304.964   156011283.019         198.306          45.000  
C16  40241213.355   209546551.124         765.830          42.000    40241217.129   162034703.059         592.157          41.000  
R14  21975950.150   117144185.631        1715.166          53.000    21975952.852    91112162.036        1333.977          50.000  
R13  23270019.462   124260593.563       -2301.192          43.000                                                                  
R05  22735780.068   121535769.352        1353.885          51.000    22735781.131    94527837.315        1053.132          47.000  
R20  22488189.550   120254452.858         955.245          40.000    22488192.652    93531259.799         742.866          49.000  
R19  21712608.447   116147803.477       -3079.285          52.000    21712606.862    90337171.507       -2394.959          50.000  
R03  22953788.598   122873414.430       -2573.122          49.000    22953788.564    95568205.649       -2001.328          46.000  
G24  23005128.378   120892740.627        2869.010          44.000    23005130.377    94202176.126        2235.556          42.000  
G30  25380789.737   133376905.535       -3642.600          36.000    25380794.314   103930089.989       -2838.638          29.000  
E07  26044483.787   136864679.375       -2306.843          45.000    26044489.147   104870357.446       -1767.483          49.000  
E19  26327416.698   138351510.874        1213.413          38.000    26327421.472   106009619.448         929.834          40.000  
E26  25405129.320   133504848.511       -2807.455          46.000    25405132.685   102295930.376       -2151.164          51.000  
E29  24551744.951   129020291.020        -360.852          47.000    24551747.715    98859711.910        -276.570          53.000  
C19  23649132.775   123147238.490         433.082          50.000                                                                  
C20  23880128.858   124350092.328       -1541.840          51.000                                                                  
C03  38487637.392   200415216.589        -519.481          43.000    38487632.584   154973740.346        -401.775          44.000  
C04  38037072.000   198069009.838        -550.740          45.000    38037066.155   153159497.399        -425.852          46.000  
C38  37134894.476   193371134.714           7.874          49.000                                                                  
C37  25159920.768   131014309.623       -1302.543          46.000                                                                  
R04  21103775.902   113009757.201        -701.746          53.000    21103773.523    87896468.334        -545.807          51.000  
R18  24419044.042   130350410.491       -4927.148          45.000    24419059.318   101383669.568       -3832.160          45.000  
R15  24228574.660   129470228.328        3688.591          44.000    24228587.116   100699204.229        2869.064          46.000  
E33  24894415.102   130821031.577        -171.467          47.000    24894417.508   100239499.729        -131.315          52.000  
J03  37964739.491   199506026.277        -327.408          45.000    37964740.017   155459259.545        -255.155          48.000  
J07  38241803.946   200962011.879        -524.183          39.000    38241803.641   156593790.276        -408.193          46.000  
G29  26315376.487   138288201.323       -3017.305          35.000    26315387.791   107757073.279       -2350.942          32.000  
G14  25051107.664   131644445.675         354.947          38.000    25051110.795   102580117.878         277.177          37.000  
G22  25136621.848   132093850.716         923.102          38.000                                                                  
G23  24969593.285   131216104.105        2625.944          39.000    24969595.604   102246327.459        2046.063          39.000  
E30  28648021.243   150546382.329         832.960          35.000                                                                  
J04                                                                  39868414.377   163254491.083        -521.735          49.000  
> 2025 10 10 00 43 10.0030000  0 42                     
G05  21738434.333   114236220.048       -1777.802          48.000    21738433.259    89015244.994       -1385.242          47.000  
G13  21408346.492   112501594.520       -2111.727          48.000                                                                  
G15  21157036.569   111180950.620         187.893          48.000    21157034.813    86634519.166         146.239          47.000  
G18  23319864.027   122546688.194        1294.714          45.000    23319863.081    95490948.597        1008.827          44.000  
G20  23368739.491   122803515.077       -3168.660          44.000                                                                  
G21  23770147.748   124912929.363       -3048.445          42.000    23770149.409    97334767.289       -2375.557          43.000  
C01  38121321.491   198507717.043        -526.101          47.000    38121317.348   153498742.495        -406.798          48.000  
C02  40237000.720   209524607.589        -460.112          37.000    40236996.745   162017706.358        -356.050          40.000  
C06  40474570.954   210761705.147         822.519          37.000    40474572.566   162974331.542         635.759          41.000  
C08  38085811.253   198322803.866         219.373          45.000    38085803.703   153355744.629         169.658          48.000  
C13  38745254.866   201756705.085         255.870          46.000    38745255.721   156011084.794         198.124          45.000  
C16  40241066.298   209545785.739         765.083          42.000    40241070.176   162034111.226         591.351          42.000  
R14  21975628.416   117142471.041        1713.848          53.000    21975631.160    91110828.463        1333.062          50.000  
R13  23270450.546   124262895.297       -2302.480          43.000                                                                  
R05  22735526.785   121534415.626        1353.260          51.000    22735527.792    94526784.409        1052.752          47.000  
R20  22488011.110   120253498.351         953.965          40.000    22488014.170    93530517.398         741.964          49.000  
R19  21713184.185   116150883.181       -3080.414          52.000    21713182.635    90339566.828       -2395.746          50.000  
R03  22954269.301   122875987.717       -2573.709          49.000    22954269.382    95570207.092       -2001.847          46.000  
G24  23004582.513   120889871.883        2868.327          44.000    23004584.515    94199940.749        2234.865          42.000  
G30  25381482.917   133380548.723       -3643.765          36.000    25381487.522   103932928.820       -2839.193          30.000  
E07  26044922.740   136866986.307       -2307.266          45.000    26044928.147   104872125.090       -1767.814          50.000  
E19  26327185.721   138350297.730        1213.056          38.000    26327190.615   106008689.920         929.274          41.000  
E26  25405663.702   133507656.272       -2808.247          46.000    25405667.086   102298081.770       -2151.731          51.000  
E29  24551813.824   129020652.252        -361.630          47.000    24551816.607    98859988.691        -277.019          54.000  
C19  23649049.577   123146805.702         432.428          50.000                                                                  
C20  23880425.091   124351634.408       -1542.365          51.000                                                                  
C03  38487737.210   200415736.254        -520.094          43.000    38487732.395   154974142.170        -402.013          45.000  
C04  38037177.801   198069560.727        -551.108          45.000    38037171.927   153159923.374        -426.152          47.000  
C38  37134892.579   193371127.051           7.273          49.000                                                                  
C37  25160170.966   131015612.611       -1303.532          46.000                                                                  
R04  21103907.030   113010459.287        -702.484          53.000    21103904.676    87897014.399        -546.386          51.000  
R18  24419967.112   130355337.802       -4927.688          44.000    24419982.407   101387501.865       -3832.491          45.000  
R15  24227884.441   129466539.907        3688.030          44.000    24227896.906   100696335.480        2868.521          46.000  
E33  24894447.658   130821203.494        -172.449          47.000    24894450.227   100239631.463        -132.198          53.000  
J03  37964801.925   199506353.869        -327.934          45.000    37964802.420   155459514.803        -255.459          48.000  
J07  38241903.610   200962535.737        -524.520          39.000    38241903.351   156594198.484        -408.439          46.000  
G29  26315950.756   138291218.714       -3017.736          36.000    26315962.512   107759424.473       -2351.291          32.000  
G14  25051039.987   131644090.552         354.865          38.000    25051043.206   102579841.204         276.023          37.000  
G22  25136446.264   132092927.657         922.556          38.000                                                                  
G23  24969093.613   131213478.190        2625.303          39.000    24969095.898   102244281.291        2045.776          39.000  
E30  28647862.901   150545549.605         832.297          35.000                                                                  
J04                                                                  39868541.749   163255012.951        -522.064          49.000  
> 2025 10 10 00 43 11.0030000  0 42                     
G05  21738772.644   114237997.860       -1778.082          48.000    21738771.520    89016630.303       -1385.443          47.000  
G13  21408748.458   112503706.307       -2111.915          48.000                                                                  
G15  21157000.822   111180762.782         187.618          48.000    21156999.000    86634372.797         146.121          47.000  
G18  23319617.673   122545393.357        1294.694          45.000    23319616.635    95489939.635        1008.813          44.000  
G20  23369342.535   122806683.709       -3168.789          43.000                                                                  
G21  23770727.784   124915977.650       -3048.468          42.000    23770729.552    97337142.568       -2375.520          43.000  
C01  38121422.540   198508242.921        -526.010          47.000    38121418.320   153499149.136        -406.654          47.000  
C02  40237089.176   209525067.826        -460.088          37.000    40237085.196   162018062.230        -355.724          39.000  
C06  40474412.827   210760882.569         822.253          37.000    40474414.527   162973695.436         636.206          40.000  
C08  38085769.003   198322584.314         219.663          45.000    38085761.465   153355574.862         169.806          47.000  
C13  38745205.637   201756448.810         256.242          46.000    38745206.492   156010886.633         198.115          45.000  
C16  40240919.238   209545020.537         765.183          42.000    40240923.203   162033519.521         591.753          41.000  
R14  21975306.957   117140757.256        1713.465          53.000    21975309.695    91109495.527        1332.605          50.000  
R13  23270881.763   124265197.935       -2303.020          43.000                                                                  
R05  22735273.541   121533062.122        1353.441          51.000    22735274.634    94525731.701        1052.586          48.000  
R20  22487832.836   120252544.827         952.825          40.000    22487835.967    93529775.769         741.259          49.000  
R19  21713759.971   116153963.699       -3080.817          52.000    21713758.605    90341962.783       -2396.106          50.000  
R03  22954750.014   122878561.190       -2573.528          49.000    22954750.171    95572208.669       -2001.567          46.000  
G24  23004036.725   120887003.622        2868.135          44.000    23004038.731    94197705.730        2234.865          41.000  
G30  25382176.263   133384192.201       -3643.873          36.000    25382180.901   103935767.888       -2839.151          30.000  
E07  26045361.679   136869293.404       -2307.064          45.000    26045367.119   104873892.871       -1767.804          50.000  
E19  26326954.839   138349084.916        1212.593          38.000    26326959.782   106007760.595         929.443          41.000  
E26  25406198.117   133510464.495       -2808.316          46.000    25406201.392   102300233.520       -2151.793          51.000  
E29  24551882.620   129021013.796        -361.559          47.000    24551885.316    98860265.719        -277.047          54.000  
C19  23648966.515   123146373.154         432.410          50.000                                                                  
C20  23880721.399   124353176.760       -1542.416          51.000                                                                  
C03  38487837.091   200416256.041        -519.673          43.000    38487832.158   154974544.095        -401.795          44.000  
C04  38037283.810   198070111.740        -550.995          45.000    38037277.778   153160349.455        -426.039          46.000  
C38  37134890.409   193371119.508           7.505          49.000                                                                  
C37  25160421.337   131016916.256       -1303.880          46.000                                                                  
R04  21104038.184   113011161.659        -702.393          53.000    21104035.851    87897560.686        -546.296          51.000  
R18  24420890.380   130360265.227       -4927.361          44.000    24420905.536   101391334.260       -3832.454          44.000  
R15  24227194.110   129462851.602        3688.329          44.000    24227206.664   100693466.825        2868.620          46.000  
E33  24894480.526   130821376.018        -172.726          47.000    24894483.043   100239763.652        -132.362          53.000  
J03  37964864.274   199506681.667        -327.817          45.000    37964864.821   155459770.226        -255.425          48.000  
J07  38242003.298   200963059.743        -524.147          39.000    38242003.066   156594606.794        -408.392          46.000  
G29  26316525.092   138294236.180       -3017.579          36.000    26316536.864   107761775.774       -2351.364          32.000  
G14  25050972.597   131643736.062         354.140          38.000    25050975.823   102579564.951         275.956          37.000  
G22  25136270.841   132092005.076         922.411          38.000                                                                  
G23  24968593.900   131210852.359        2625.972          39.000    24968596.219   102242235.211        2045.808          39.000  
E30  28647704.485   150544717.290         832.135          35.000                                                                  
J04                                                                  39868669.232   163255534.852        -521.777          49.000  
> 2025 10 10 00 43 12.0030000  0 42                     
G05  21739111.064   114239775.972       -1778.619          48.000    21739109.832    89018015.838       -1385.791          47.000  
G13  21409150.231   112505818.249       -2112.337          48.000                                                                  
G15  21156965.059   111180575.132         187.370          48.000    21156963.246    86634226.570         145.950          47.000  
G18  23319371.316   122544098.996        1293.768          44.000    23319370.312    95488931.042        1008.159          44.000  
G20  23369945.580   122809852.538       -3169.311          43.000                                                                  
G21  23771307.917   124919026.073       -3048.629          42.000    23771309.636    97339517.954       -2375.583          43.000  
C01  38121523.410   198508768.677        -526.015          47.000    38121519.286   153499555.671        -406.571          48.000  
C02  40237177.634   209525527.951        -460.543          37.000    40237173.551   162018418.012        -355.906          40.000  
C06  40474254.834   210760059.870         822.684          37.000    40474256.538   162973059.295         636.131          41.000  
C08  38085726.794   198322364.615         219.536          45.000    38085719.315   153355404.970         169.790          48.000  
C13  38745156.434   201756192.381         256.208          46.000    38745157.281   156010688.351         198.014          45.000  
C16  40240772.342   209544255.323         764.836          42.000    40240776.221   162032927.786         591.833          42.000  
R14  21974985.458   117139044.050        1712.644          53.000    21974988.297    91108163.035        1332.049          50.000  
R13  23271313.132   124267501.237       -2303.714          43.000                                                                  
R05  22735020.332   121531708.592        1353.285          51.000    22735021.378    94524678.952        1052.619          48.000  
R20  22487654.532   120251592.008         952.236          40.000    22487657.801    93529034.688         740.698          49.000  
R19  21714336.010   116157044.758       -3081.555          52.000    21714334.696    90344359.161       -2396.765          50.000  
R03  22955230.628   122881134.610       -2573.630          49.000    22955231.012    95574210.217       -2001.557          46.000  
G24  23003490.893   120884135.584        2867.758          44.000    23003492.939    94195470.906        2234.393          42.000  
G30  25382869.664   133387835.750       -3643.982          36.000    25382874.469   103938606.943       -2837.465          30.000  
E07  26045800.701   136871600.414       -2307.063          45.000    26045806.172   104875660.581       -1767.819          50.000  
E19  26326724.081   138347872.127        1212.538          38.000    26326728.984   106006831.323         929.163          41.000  
E26  25406732.414   133513272.909       -2808.754          46.000    25406735.846   102302385.424       -2152.175          51.000  
E29  24551951.439   129021375.407        -361.752          47.000    24551954.088    98860542.796        -277.212          54.000  
C19  23648883.394   123145940.598         432.324          50.000                                                                  
C20  23881017.439   124354719.121       -1542.633          51.000                                                                  
C03  38487936.951   200416775.700        -519.764          43.000    38487931.919   154974945.936        -401.808          45.000  
C04  38037389.666   198070662.614        -550.909          45.000    38037383.583   153160775.438        -426.157          47.000  
C38  37134888.460   193371111.837           7.498          49.000                                                                  
C37  25160671.759   131018220.287       -1304.395          46.000                                                                  
R04  21104169.363   113011864.073        -702.701          53.000    21104167.079    87898107.002        -546.455          51.000  
R18  24421813.540   130365192.499       -4927.349          44.000    24421828.641   101395166.524       -3832.411          44.000  
R15  24226503.960   129459163.200        3688.136          44.000    24226516.389   100690598.088        2868.726          46.000  
E33  24894513.427   130821548.887        -173.377          47.000    24894515.900   100239896.109        -132.792          53.000  
J03  37964926.599   199507009.413        -328.062          45.000    37964927.241   155460025.616        -255.586          48.000  
J07  38242102.912   200963583.592        -523.406          39.000    38242102.699   156595015.004        -408.296          46.000  
G29  26317099.331   138297253.502       -3017.199          37.000    26317110.881   107764126.932       -2351.276          31.000  
G14  25050905.143   131643381.871         353.501          38.000    25050908.432   102579288.971         275.709          37.000  
G22  25136095.316   132091082.746         922.059          38.000                                                                  
G23  24968094.225   131208226.388        2625.974          39.000    24968096.492   102240188.997        2046.047          39.000  
E30  28647546.128   150543885.199         831.807          35.000                                                                  
J04                                                                  39868796.683   163256056.596        -521.851          49.000  
> 2025 10 10 00 43 13.0030000  0 42                     
G05  21739449.546   114241554.553       -1778.918          48.000    21739448.338    89019401.751       -1386.163          47.000  
G13  21409552.205   112507930.498       -2112.458          48.000                                                                  
G15  21156929.418   111180387.856         187.189          48.000    21156927.557    86634080.642         145.749          47.000  
G18  23319125.125   122542805.238        1293.412          45.000    23319124.152    95487922.927        1007.741          44.000  
G20  23370548.723   122813021.729       -3169.421          44.000                                                                  
G21  23771888.018   124922074.815       -3049.049          42.000    23771889.800    97341893.584       -2375.766          43.000  
C01  38121624.396   198509294.476        -525.871          47.000    38121620.259   153499962.261        -406.552          48.000  
C02  40237265.974   209525988.103        -460.212          37.000    40237261.867   162018773.856        -356.202          40.000  
C06  40474096.771   210759237.294         822.109          37.000    40474098.501   162972423.228         636.035          41.000  
C08  38085684.545   198322144.922         219.740          45.000    38085677.077   153355235.099         169.749          48.000  
C13  38745107.143   201755935.916         256.508          46.000    38745108.024   156010490.036         198.259          45.000  
C16  40240625.491   209543490.200         764.583          42.000    40240629.398   162032336.159         591.467          41.000  
R14  21974664.234   117137331.541        1712.089          53.000    21974666.966    91106831.088        1331.583          50.000  
R13  23271744.581   124269805.354       -2304.476          43.000                                                                  
R05  22734767.105   121530355.200        1353.233          51.000    22734768.271    94523626.318        1052.548          48.000  
R20  22487476.514   120250640.075         951.507          41.000    22487479.755    93528294.304         739.977          49.000  
R19  21714912.049   116160126.519       -3082.172          52.000    21714910.822    90346756.084       -2397.314          50.000  
R03  22955711.427   122883708.168       -2573.722          49.000    22955711.778    95576211.873       -2001.807          46.000  
G24  23002945.177   120881267.919        2867.475          44.000    23002947.269    94193236.355        2234.381          42.000  
G30  25383563.114   133391479.520       -3644.062          36.000    25383567.912   103941446.338       -2839.937          29.000  
E07  26046239.619   136873907.513       -2307.212          45.000    26046245.197   104877428.356       -1767.921          50.000  
E19  26326493.427   138346659.499        1212.139          38.000    26326498.232   106005902.172         928.986          41.000  
E26  25407266.936   133516081.707       -2809.056          46.000    25407270.272   102304537.609       -2152.341          51.000  
E29  24552020.236   129021737.250        -362.050          47.000    24552022.965    98860820.049        -277.330          54.000  
C19  23648800.350   123145508.197         432.295          50.000                                                                  
C20  23881313.741   124356261.655       -1542.617          51.000                                                                  
C03  38488036.738   200417295.406        -519.896          43.000    38488031.720   154975347.804        -401.946          45.000  
C04  38037495.447   198071213.555        -551.071          45.000    38037489.455   153161201.444        -426.041          47.000  
C38  37134886.819   193371104.214           7.495          49.000                                                                  
C37  25160922.400   131019524.891       -1304.858          46.000                                                                  
R04  21104300.520   113012566.688        -702.774          53.000    21104298.348    87898653.486        -546.627          51.000  
R18  24422736.581   130370119.769       -4927.277          44.000    24422751.714   101398998.792       -3832.332          44.000  
R15  24225813.694   129455474.816        3688.427          44.000    24225826.222   100687729.381        2868.577          46.000  
E33  24894546.278   130821722.273        -173.677          47.000    24894548.893   100240028.962        -133.090          53.000  
J03  37964988.945   199507337.269        -327.955          45.000    37964989.476   155460281.095        -255.680          48.000  
J07  38242202.653   200964107.504        -523.562          39.000    38242202.350   156595423.242        -408.280          46.000  
G29  26317673.434   138300270.845       -3017.480          37.000    26317684.926   107766478.129       -2351.435          31.000  
G14  25050837.784   131643028.164         353.824          38.000    25050841.015   102579013.366         275.227          37.000  
G22  25135919.902   132090160.821         921.657          38.000                                                                  
G23  24967594.433   131205600.415        2626.030          39.000    24967596.750   102238142.805        2045.937          39.000  
E30  28647388.042   150543053.459         831.223          35.000                                                                  
J04                                                                  39868923.999   163256578.305        -521.777          49.000  
> 2025 10 10 00 43 14.0030000  0 42                     
G05  21739788.069   114243333.633       -1779.370          48.000    21739786.820    89020788.040       -1386.523          47.000  
G13  21409954.200   112510043.099       -2112.788          48.000                                                                  
G15  21156893.851   111180200.973         186.643          48.000    21156891.935    86633935.025         145.245          47.000  
G18  23318879.045   122541512.139        1292.664          44.000    23318878.038    95486915.309        1007.205          44.000  
G20  23371151.838   122816191.318       -3169.921          44.000                                                                  
G21  23772468.261   124925123.872       -3049.154          42.000    23772469.997    97344269.470       -2375.884          43.000  
C01  38121725.397   198509820.332        -525.829          47.000    38121721.173   153500368.890        -406.555          47.000  
C02  40237354.304   209526448.292        -460.048          37.000    40237350.206   162019129.695        -355.984          39.000  
C06  40473938.915   210758414.816         822.537          37.000    40473940.608   162971787.258         635.816          40.000  
C08  38085642.393   198321925.258         219.631          45.000    38085634.970   153355065.239         169.716          48.000  
C13  38745057.893   201755679.485         256.322          46.000    38745058.731   156010291.742         198.248          45.000  
C16  40240478.609   209542725.205         764.927          42.000    40240482.444   162031744.614         591.696          41.000  
R14  21974343.184   117135619.751        1711.354          53.000    21974345.755    91105499.690        1331.138          50.000  
R13  23272176.138   124272110.323       -2305.524          43.000                                                                  
R05  22734513.992   121529001.989        1353.110          51.000    22734515.067    94522573.828        1052.391          48.000  
R20  22487298.674   120249689.067         950.456          41.000    22487301.944    93527554.625         739.406          49.000  
R19  21715488.382   116163209.034       -3082.917          52.000    21715487.092    90349153.587       -2397.876          50.000  
R03  22956192.168   122886281.855       -2573.833          49.000    22956192.623    95578213.627       -2001.909          46.000  
G24  23002399.523   120878400.686        2866.956          44.000    23002401.684    94191002.161        2233.989          42.000  
G30  25384256.612   133395123.559       -3644.381          36.000    25384261.391   103944285.797       -2839.743          30.000  
E07  26046678.679   136876214.729       -2307.349          45.000    26046684.203   104879196.216       -1767.915          49.000  
E19  26326262.653   138345447.105        1212.051          38.000    26326267.534   106004973.180         928.946          40.000  
E26  25407801.465   133518890.877       -2809.325          46.000    25407804.881   102306690.095       -2152.643          50.000  
E29  24552089.210   129022099.343        -362.272          47.000    24552091.929    98861097.503        -277.630          53.000  
C19  23648717.461   123145075.989         431.991          50.000                                                                  
C20  23881610.044   124357804.410       -1542.862          51.000                                                                  
C03  38488136.482   200417815.148        -519.655          43.000    38488131.468   154975749.706        -402.007          44.000  
C04  38037601.197   198071764.547        -551.058          45.000    38037595.287   153161627.516        -426.167          46.000  
C38  37134885.541   193371096.659           7.491          49.000                                                                  
C37  25161173.023   131020830.087       -1305.396          46.000                                                                  
R04  21104431.752   113013269.554        -702.987          53.000    21104429.638    87899200.161        -546.818          51.000  
R18  24423659.756   130375047.106       -4927.590          44.000    24423674.813   101402831.101       -3832.282          44.000  
R15  24225123.498   129451786.512        3688.397          44.000    24225135.965   100684860.715        2868.569          46.000  
E33  24894579.603   130821896.202        -174.289          47.000    24894582.066   100240162.226        -133.476          52.000  
J03  37965051.353   199507665.279        -328.121          45.000    37965051.883   155460536.675        -255.660          48.000  
J07  38242302.274   200964631.475        -524.148          39.000    38242302.089   156595831.525        -408.362          46.000  
G29  26318247.646   138303288.235       -3017.536          36.000    26318259.082   107768829.305       -2351.381          32.000  
G14  25050770.575   131642675.006         352.935          38.000    25050773.720   102578738.178         274.901          37.000  
G22  25135744.497   132089239.327         921.284          38.000                                                                  
G23  24967094.764   131202974.509        2625.714          38.000    24967097.009   102236096.632        2045.791          39.000  
E30  28647229.896   150542222.061         831.021          35.000                                                                  
J04                                                                  39869051.373   163257100.000        -521.600          49.000  
> 2025 10 10 00 43 15.0030000  0 42                     
G05  21740126.727   114245113.231       -1779.584          48.000    21740125.459    89022174.742       -1386.749          47.000  
G13  21410356.279   112512156.073       -2112.896          48.000                                                                  
G15  21156858.370   111180014.494         186.586          48.000    21156856.441    86633789.713         145.325          47.000  
G18  23318632.970   122540219.695        1292.391          45.000    23318632.075    95485908.207        1007.118          44.000  
G20  23371754.996   122819361.305       -3169.886          44.000                                                                  
G21  23773048.590   124928173.290       -3049.454          42.000    23773050.380    97346645.635       -2376.148          43.000  
C01  38121826.513   198510346.269        -525.651          47.000    38121822.169   153500775.583        -406.546          48.000  
C02  40237442.781   209526908.584        -459.782          37.000    40237438.716   162019485.620        -355.773          40.000  
C06  40473780.955   210757592.519         822.358          37.000    40473782.667   162971151.385         636.124          41.000  
C08  38085600.172   198321705.643         219.814          45.000    38085592.730   153354895.420         170.057          48.000  
C13  38745008.773   201755423.081         256.605          46.000    38745009.488   156010093.478         198.438          45.000  
C16  40240331.663   209541960.388         765.138          42.000    40240335.551   162031153.232         591.267          42.000  
R14  21974022.187   117133908.708        1710.947          53.000    21974024.832    91104168.888        1330.692          50.000  
R13  23272607.954   124274416.123       -2305.943          43.000                                                                  
R05  22734260.968   121527648.987        1353.173          51.000    22734262.053    94521521.490        1052.530          48.000  
R20  22487121.000   120248738.990         949.868          41.000    22487124.273    93526815.672         738.824          49.000  
R19  21716064.787   116166292.311       -3083.417          52.000    21716063.551    90351551.687       -2398.163          50.000  
R03  22956672.911   122888855.699       -2573.679          49.000    22956673.443    95580215.500       -2001.776          46.000  
G24  23001854.078   120875533.871        2866.895          44.000    23001856.248    94188768.262        2234.015          42.000  
G30  25384949.995   133398767.875       -3644.540          36.000    25384954.794   103947125.536       -2839.550          30.000  
E07  26047117.731   136878522.055       -2307.118          45.000    26047123.312   104880964.174       -1767.859          50.000  
E19  26326031.831   138344234.922        1212.500          38.000    26326036.799   106004044.394         928.840          41.000  
E26  25408336.029   133521700.480       -2809.577          46.000    25408339.558   102308842.899       -2152.742          52.000  
E29  24552158.075   129022461.709        -362.235          47.000    24552160.706    98861375.160        -277.550          54.000  
C19  23648634.604   123144643.971         432.270          50.000                                                                  
C20  23881906.356   124359347.381       -1542.834          51.000                                                                  
C03  38488236.282   200418335.010        -519.817          43.000    38488231.274   154976151.675        -401.497          45.000  
C04  38037707.011   198072315.624        -550.854          45.000    38037701.099   153162053.640        -425.947          47.000  
C38  37134884.140   193371089.192           7.684          49.000                                                                  
C37  25161423.834   131022135.899       -1305.878          46.000                                                                  
R04  21104563.030   113013972.701        -702.983          53.000    21104560.928    87899747.053        -546.751          51.000  
R18  24424582.754   130379974.486       -4927.110          44.000    24424597.886   101406663.462       -3832.098          44.000  
R15  24224433.245   129448098.308        3688.428          44.000    24224445.643   100681992.138        2868.801          46.000  
E33  24894612.686   130822070.684        -174.512          47.000    24894615.171   100240295.925        -133.665          53.000  
J03  37965113.791   199507993.447        -327.870          45.000    37965114.320   155460792.390        -255.518          48.000  
J07  38242401.987   200965155.543        -523.969          39.000    38242401.772   156596239.872        -408.163          46.000  
G29  26318821.773   138306305.686       -3017.050          36.000    26318833.784   107771180.542       -2351.013          33.000  
G14  25050703.530   131642322.379         352.571          38.000    25050706.600   102578463.403         274.655          37.000  
G22  25135569.221   132088318.267         921.367          38.000                                                                  
G23  24966595.064   131200348.641        2625.889          39.000    24966597.293   102234050.500        2046.483          39.000  
E30  28647071.646   150541391.092         830.950          35.000                                                                  
J04                                                                  39869178.740   163257621.705        -521.454          49.000  
> 2025 10 10 00 43 16.0030000  0 42                     
G05  21740465.437   114246893.205       -1780.280          48.000    21740464.142    89023561.739       -1387.311          47.000  
G13  21410758.412   112514269.266       -2113.441          48.000                                                                  
G15  21156823.077   111179828.300         185.879          48.000    21156821.037    86633644.623         144.784          47.000  
G18  23318387.142   122538927.772        1291.549          45.000    23318386.321    95484901.530        1006.209          44.000  
G20  23372358.269   122822531.578       -3170.479          44.000                                                                  
G21  23773628.894   124931222.920       -3049.945          42.000    23773630.702    97349021.958       -2376.493          43.000  
C01  38121927.319   198510872.168        -525.952          47.000    38121923.085   153501182.233        -406.794          48.000  
C02  40237531.172   209527368.837        -460.436          37.000    40237527.094   162019841.499        -356.022          40.000  
C06  40473623.137   210756770.191         822.206          37.000    40473624.718   162970515.523         635.687          41.000  
C08  38085558.020   198321485.974         219.609          45.000    38085550.537   153354725.550         169.724          48.000  
C13  38744959.457   201755166.592         256.318          46.000    38744960.229   156009895.144         198.240          45.000  
C16  40240184.835   209541195.598         764.741          42.000    40240188.666   162030561.847         590.967          42.000  
R14  21973701.302   117132198.301        1709.985          53.000    21973704.019    91102838.571        1329.933          50.000  
R13  23273039.905   124276722.636       -2306.908          43.000                                                                  
R05  22734007.829   121526296.044        1352.795          51.000    22734008.989    94520469.205        1052.146          48.000  
R20  22486943.402   120247789.683         948.928          41.000    22486946.712    93526077.325         738.026          49.000  
R19  21716641.369   116169376.237       -3084.448          52.000    21716640.022    90353950.291       -2398.938          50.000  
R03  22957153.649   122891429.568       -2574.169          49.000    22957154.299    95582217.391       -2001.948          46.000  
G24  23001308.672   120872667.355        2866.272          44.000    23001310.736    94186534.629        2233.290          41.000  
G30  25385643.401   133402412.305       -3644.729          36.000    25385648.379   103949965.327       -2840.031          30.000  
E07  26047556.824   136880829.387       -2307.542          45.000    26047562.441   104882732.118       -1768.061          49.000  
E19  26325801.369   138343022.889        1211.732          38.000    26325806.301   106003115.681         928.560          40.000  
E26  25408870.969   133524510.353       -2810.151          46.000    25408874.233   102310995.917       -2153.289          51.000  
E29  24552227.217   129022824.214        -362.691          47.000    24552229.849    98861652.920        -277.907          53.000  
C19  23648551.588   123144212.028         431.705          50.000                                                                  
C20  23882202.572   124360890.433       -1543.253          51.000                                                                  
C03  38488336.052   200418854.806        -519.894          43.000    38488331.131   154976553.633        -402.081          45.000  
C04  38037812.835   198072866.666        -551.317          45.000    38037806.946   153162479.730        -426.196          47.000  
C38  37134883.157   193371081.666           7.545          49.000                                                                  
C37  25161674.772   131023442.177       -1306.674          46.000                                                                  
R04  21104694.362   113014675.975        -703.482          53.000    21104692.265    87900294.041        -547.171          51.000  
R18  24425505.919   130384901.784       -4927.437          44.000    24425520.974   101410495.754       -3832.251          44.000  
R15  24223743.002   129444410.057        3688.088          44.000    24223755.407   100679123.535        2868.474          46.000  
E33  24894646.148   130822245.603        -175.254          47.000    24894648.521   100240429.951        -134.297          52.000  
J03  37965176.298   199508321.636        -328.157          45.000    37965176.829   155461048.123        -255.861          48.000  
J07  38242501.647   200965679.541        -524.480          39.000    38242501.551   156596648.185        -408.486          46.000  
G29  26319395.842   138309323.086       -3017.699          36.000    26319408.130   107773531.743       -2351.718          33.000  
G14  25050636.529   131641970.155         351.814          38.000    25050639.570   102578188.945         274.209          37.000  
G22  25135394.014   132087397.569         919.759          38.000                                                                  
G23  24966095.367   131197722.688        2625.744          39.000    24966097.575   102232004.320        2046.011          38.000  
E30  28646913.610   150540560.361         830.827          35.000                                                                  
J04                                                                  39869306.151   163258143.305        -521.722          49.000  
> 2025 10 10 00 43 17.0030000  0 42                     
G05  21740804.248   114248673.870       -1781.311          47.000    21740802.912    89024949.260       -1387.964          47.000  
G13  21411160.609   112516382.972       -2114.231          48.000                                                                  
G15  21156787.715   111179642.661         185.125          47.000    21156785.679    86633499.966         144.270          47.000  
G18  23318141.423   122537636.677        1290.418          45.000    23318140.589    95483895.465        1005.550          44.000  
G20  23372961.772   122825702.396       -3171.123          44.000                                                                  
G21  23774209.323   124934273.038       -3050.710          42.000    23774211.046    97351398.676       -2377.152          43.000  
C01  38122028.267   198511398.276        -526.498          47.000    38122024.162   153501589.045        -406.857          48.000  
C02  40237619.723   209527829.296        -460.950          37.000    40237615.596   162020197.557        -356.100          40.000  
C06  40473465.240   210755948.146         821.400          37.000    40473466.901   162969879.876         635.291          41.000  
C08  38085515.901   198321266.471         219.165          45.000    38085508.397   153354555.822         169.405          48.000  
C13  38744910.236   201754910.249         256.149          46.000    38744910.991   156009696.926         197.973          45.000  
C16  40240038.121   209540431.124         764.232          42.000    40240041.860   162029970.699         590.835          42.000  
R14  21973380.607   117130488.818        1708.762          53.000    21973383.442    91101508.980        1328.947          50.000  
R13  23273471.979   124279030.166       -2308.324          43.000                                                                  
R05  22733754.771   121524943.439        1352.142          51.000    22733755.978    94519417.179        1051.660          48.000  
R20  22486766.102   120246841.471         947.058          41.000    22486769.403    93525339.816         736.870          49.000  
R19  21717218.021   116172461.089       -3085.553          52.000    21717216.677    90356349.618       -2399.964          50.000  
R03  22957634.625   122894003.747       -2574.560          49.000    22957635.179    95584219.529       -2002.431          46.000  
G24  23000763.270   120869801.413        2865.487          44.000    23000765.346    94184301.431        2232.703          42.000  
G30  25386336.900   133406057.171       -3645.587          36.000    25386341.838   103952805.459       -2840.504          30.000  
E07  26047995.993   136883136.978       -2307.973          45.000    26048001.538   104884500.273       -1768.404          50.000  
E19  26325570.859   138341811.209        1211.473          38.000    26325575.619   106002187.253         928.166          41.000  
E26  25409405.774   133527320.777       -2810.829          46.000    25409409.116   102313149.355       -2153.845          52.000  
E29  24552296.202   129023187.139        -363.322          47.000    24552298.930    98861931.003        -278.388          54.000  
C19  23648468.730   123143780.426         431.163          50.000                                                                  
C20  23882498.920   124362433.857       -1543.935          51.000                                                                  
C03  38488436.005   200419374.844        -520.684          43.000    38488431.000   154976955.768        -403.059          45.000  
C04  38037918.614   198073417.921        -551.618          45.000    38037912.724   153162906.001        -426.608          47.000  
C38  37134882.223   193371074.385           6.916          49.000                                                                  
C37  25161925.775   131024749.211       -1307.746          46.000                                                                  
R04  21104825.841   113015379.646        -704.127          53.000    21104823.769    87900841.342        -547.700          51.000  
R18  24426428.906   130389829.308       -4927.932          44.000    24426444.071   101414328.224       -3832.853          44.000  
R15  24223052.678   129440722.043        3687.647          44.000    24223065.220   100676255.115        2868.092          46.000  
E33  24894679.595   130822421.222        -176.305          47.000    24894681.881   100240564.510        -134.980          53.000  
J03  37965238.890   199508650.148        -329.024          45.000    37965239.291   155461304.098        -256.293          48.000  
J07  38242601.423   200966203.743        -524.612          39.000    38242601.292   156597056.662        -408.823          46.000  
G29  26319970.153   138312340.672       -3018.263          36.000    26319982.292   107775883.033       -2351.097          33.000  
G14  25050569.579   131641618.598         351.210          38.000    25050572.700   102577915.002         273.380          37.000  
G22  25135218.900   132086477.401         919.726          38.000                                                                  
G23  24965595.814   131195096.936        2625.341          38.000    24965597.867   102229958.288        2045.491          38.000  
E30  28646755.573   150539730.214         829.569          35.000                                                                  
J04                                                                  39869433.584   163258665.021        -522.034          49.000  
> 2025 10 10 00 43 18.0030000  0 42                     
G05  21741143.270   114250455.209       -1781.579          48.000    21741141.930    89026337.315       -1388.409          47.000  
G13  21411562.989   112518497.193       -2114.410          48.000                                                                  
G15  21156752.424   111179457.577         184.925          48.000    21156750.474    86633355.746         144.092          47.000  
G18  23317895.895   122536346.387        1289.891          45.000    23317895.165    95482890.035        1005.211          44.000  
G20  23373565.267   122828873.792       -3171.667          43.000                                                                  
G21  23774789.832   124937323.661       -3050.763          42.000    23774791.510    97353775.771       -2377.106          43.000  
C01  38122129.464   198511924.620        -526.423          47.000    38122125.257   153501996.058        -407.051          47.000  
C02  40237708.175   209528290.000        -461.062          37.000    40237704.013   162020553.781        -355.900          40.000  
C06  40473307.443   210755126.417         821.669          37.000    40473309.080   162969244.447         635.482          40.000  
C08  38085473.796   198321047.157         219.401          45.000    38085466.282   153354386.228         169.639          48.000  
C13  38744860.988   201754654.100         256.175          46.000    38744861.794   156009498.847         198.180          45.000  
C16  40239891.440   209539666.946         764.199          42.000    40239895.137   162029379.783         591.045          41.000  
R14  21973060.102   117128780.261        1708.186          53.000    21973062.964    91100180.099        1328.615          50.000  
R13  23273904.312   124281338.748       -2309.207          43.000                                                                  
R05  22733501.663   121523591.161        1352.199          50.000    22733503.009    94518365.411        1051.771          48.000  
R20  22486588.968   120245894.304         946.825          41.000    22486592.196    93524603.144         736.328          49.000  
R19  21717794.814   116175546.859       -3086.151          52.000    21717793.514    90358749.656       -2400.287          50.000  
R03  22958115.492   122896578.254       -2574.595          49.000    22958116.213    95586221.919       -2002.404          46.000  
G24  23000217.981   120866936.070        2865.109          44.000    23000220.172    94182068.684        2232.432          42.000  
G30  25387030.577   133409702.454       -3645.316          36.000    25387035.423   103955645.921       -2840.042          30.000  
E07  26048435.038   136885444.855       -2307.906          45.000    26048440.681   104886268.648       -1768.444          50.000  
E19  26325340.428   138340599.957        1211.125          38.000    26325345.216   106001259.154         928.080          41.000  
E26  25409940.643   133530131.774       -2811.215          46.000    25409943.974   102315303.230       -2154.075          51.000  
E29  24552365.282   129023550.489        -363.509          47.000    24552367.957    98862209.415        -278.516          54.000  
C19  23648386.098   123143349.177         431.084          50.000                                                                  
C20  23882795.363   124363977.657       -1543.957          51.000                                                                  
C03  38488535.860   200419895.105        -520.537          43.000    38488530.905   154977358.032        -402.213          44.000  
C04  38038024.570   198073969.415        -551.488          45.000    38038018.621   153163332.452        -426.559          46.000  
C38  37134881.394   193371067.336           7.001          49.000                                                                  
C37  25162176.936   131026057.002       -1308.092          46.000                                                                  
R04  21104957.294   113016083.719        -704.149          53.000    21104955.197    87901388.950        -547.618          51.000  
R18  24427352.093   130394757.043       -4927.702          44.000    24427367.167   101418160.859       -3832.697          44.000  
R15  24222362.476   129437034.290        3687.615          44.000    24222375.085   100673386.885        2868.208          46.000  
E33  24894712.993   130822597.545        -176.637          47.000    24894715.375   100240699.618        -135.330          53.000  
J03  37965301.463   199508978.955        -328.861          45.000    37965301.930   155461560.312        -256.287          48.000  
J07  38242701.149   200966728.182        -524.553          39.000    38242701.042   156597465.321        -408.681          46.000  
G29  26320544.654   138315358.438       -3017.645          37.000    26320556.325   107778234.581       -2351.399          32.000  
G14  25050502.790   131641267.749         350.524          38.000    25050505.887   102577641.605         273.231          37.000  
G22  25135043.881   132085557.860         919.345          38.000                                                                  
G23  24965096.172   131192471.397        2625.555          39.000    24965098.247   102227912.405        2046.106          38.000  
E30  28646597.539   150538900.573         829.188          35.000                                                                  
J04                                                                  39869561.116   163259186.857        -521.857          49.000  
> 2025 10 10 00 43 19.0030000  0 42                     
G05  21741482.299   114252236.974       -1781.995          48.000    21741481.035    89027725.701       -1388.519          47.000  
G13  21411965.446   112520611.690       -2114.593          48.000                                                                  
G15  21156717.210   111179272.840         184.750          48.000    21156715.229    86633211.799         143.835          47.000  
G18  23317650.460   122535056.674        1289.358          45.000    23317649.682    95481885.075        1004.768          44.000  
G20  23374168.790   122832045.512       -3171.926          43.000                                                                  
G21  23775370.350   124940374.544       -3050.975          42.000    23775371.934    97356153.088       -2377.583          43.000  
C01  38122230.450   198512450.955        -526.286          47.000    38122226.281   153502403.047        -406.934          47.000  
C02  40237796.742   209528750.696        -460.603          37.000    40237792.535   162020910.037        -356.042          39.000  
C06  40473149.582   210754304.719         821.701          37.000    40473151.359   162968609.082         635.178          40.000  
C08  38085431.701   198320827.829         219.447          45.000    38085424.087   153354216.623         169.752          48.000  
C13  38744811.712   201754397.912         256.346          46.000    38744812.592   156009300.752         198.241          45.000  
C16  40239744.725   209538902.864         764.147          42.000    40239748.390   162028788.951         590.742          41.000  
R14  21972739.679   117127072.411        1707.507          53.000    21972742.596    91098851.771        1328.072          50.000  
R13  23274336.737   124283648.129       -2309.870          43.000                                                                  
R05  22733248.665   121522238.984        1352.203          50.000    22733250.172    94517313.725        1051.580          48.000  
R20  22486412.061   120244948.017         945.718          41.000    22486415.324    93523867.130         735.681          49.000  
R19  21718371.784   116178633.295       -3086.780          52.000    21718370.403    90361150.212       -2400.775          50.000  
R03  22958596.426   122899152.839       -2574.539          49.000    22958597.144    95588224.363       -2002.284          46.000  
G24  22999672.762   120864071.069        2864.887          44.000    22999674.971    94179836.225        2232.520          42.000  
G30  25387724.352   133413347.942       -3645.459          36.000    25387729.287   103958486.629       -2841.387          30.000  
E07  26048874.097   136887752.777       -2307.890          45.000    26048879.872   104888037.054       -1768.452          49.000  
E19  26325109.730   138339388.842        1210.920          38.000    26325114.700   106000331.150         927.964          40.000  
E26  25410475.555   133532943.094       -2811.484          46.000    25410478.981   102317457.357       -2154.286          50.000  
E29  24552434.653   129023914.028        -363.592          47.000    24552437.168    98862487.970        -278.641          53.000  
C19  23648303.296   123142918.049         431.049          50.000                                                                  
C20  23883091.842   124365521.598       -1544.049          51.000                                                                  
C03  38488635.773   200420415.358        -520.372          43.000    38488630.854   154977760.335        -402.207          44.000  
C04  38038130.475   198074520.926        -551.546          45.000    38038124.488   153163758.911        -426.400          46.000  
C38  37134880.614   193371060.292           6.952          49.000                                                                  
C37  25162428.155   131027365.317       -1308.429          46.000                                                                  
R04  21105088.755   113016787.979        -704.370          53.000    21105086.655    87901936.706        -547.816          51.000  
R18  24428275.365   130399684.765       -4927.635          44.000    24428290.247   101421993.475       -3832.444          44.000  
R15  24221672.271   129433346.572        3687.809          44.000    24221685.029   100670518.681        2868.351          46.000  
E33  24894746.643   130822774.353        -177.061          47.000    24894749.144   100240835.090        -135.629          52.000  
J03  37965364.077   199509307.848        -328.875          45.000    37965364.550   155461816.591        -256.372          48.000  
J07  38242800.964   200967252.657        -524.708          39.000    38242800.836   156597873.987        -408.754          46.000  
G29  26321118.994   138318376.196       -3017.671          37.000    26321129.847   107780586.091       -2351.303          31.000  
G14  25050436.109   131640917.339         350.375          38.000    25050439.270   102577368.574         272.860          37.000  
G22  25134868.997   132084638.690         918.831          38.000                                                                  
G23  24964596.591   131189845.849        2625.262          38.000    24964598.494   102225866.519        2045.898          38.000  
E30  28646439.771   150538071.262         828.966          35.000                                                                  
J04                                                                  39869688.509   163259708.629        -521.735          49.000  
> 2025 10 10 00 43 20.0030000  0 42                     
G05  21741821.467   114254019.124       -1782.385          48.000    21741820.186    89029114.391       -1388.965          47.000  
G13  21412367.957   112522726.423       -2115.000          48.000                                                                  
G15  21156682.028   111179088.378         184.335          48.000    21156680.021    86633068.058         143.676          47.000  
G18  23317405.110   122533767.490        1288.933          45.000    23317404.337    95480880.519        1004.294          44.000  
G20  23374772.386   122835217.492       -3172.066          43.000                                                                  
G21  23775950.979   124943425.640       -3051.252          42.000    23775952.571    97358530.541       -2377.507          43.000  
C01  38122331.435   198512977.250        -526.499          47.000    38122327.405   153502809.998        -406.854          47.000  
C02  40237885.221   209529211.355        -460.747          37.000    40237880.959   162021266.233        -356.006          39.000  
C06  40472991.729   210753483.053         821.527          37.000    40472993.532   162967973.689         635.391          40.000  
C08  38085389.593   198320608.377         219.494          45.000    38085382.014   153354046.934         169.740          48.000  
C13  38744762.482   201754141.642         256.212          46.000    38744763.363   156009102.591         198.028          45.000  
C16  40239597.933   209538138.804         764.000          42.000    40239601.675   162028198.141         590.426          41.000  
R14  21972419.343   117125365.204        1706.800          53.000    21972422.376    91097523.947        1327.557          50.000  
R13  23274769.434   124285958.238       -2310.508          43.000                                                                  
R05  22732995.780   121520886.862        1352.083          51.000    22732997.174    94516262.067        1051.567          48.000  
R20  22486235.236   120244002.502         944.871          41.000    22486238.556    93523131.729         735.021          49.000  
R19  21718948.880   116181720.339       -3087.360          52.000    21718947.470    90363551.249       -2401.404          50.000  
R03  22959077.336   122901727.462       -2574.728          49.000    22959078.105    95590226.845       -2002.507          46.000  
G24  22999127.568   120861206.359        2864.538          43.000    22999129.864    94177603.987        2232.082          42.000  
G30  25388417.996   133416993.551       -3645.439          36.000    25388422.801   103961327.245       -2839.253          29.000  
E07  26049313.369   136890060.691       -2307.875          45.000    26049319.144   104889805.452       -1768.423          50.000  
E19  26324879.312   138338177.818        1211.217          38.000    26324884.273   105999403.233         927.928          41.000  
E26  25411010.466   133535754.679       -2811.662          46.000    25411013.971   102319611.686       -2154.410          51.000  
E29  24552503.837   129024277.694        -363.719          47.000    24552506.392    98862766.622        -278.701          54.000  
C19  23648220.388   123142486.976         431.064          50.000                                                                  
C20  23883388.214   124367065.619       -1544.085          51.000                                                                  
C03  38488735.703   200420935.557        -520.256          43.000    38488730.734   154978162.603        -402.677          44.000  
C04  38038236.405   198075072.372        -551.599          45.000    38038230.404   153164185.319        -426.321          46.000  
C38  37134879.361   193371053.183           7.008          49.000                                                                  
C37  25162679.450   131028674.111       -1309.142          46.000                                                                  
R04  21105220.247   113017492.352        -704.503          53.000    21105218.068    87902484.552        -547.928          51.000  
R18  24429198.516   130404612.384       -4927.625          44.000    24429213.443   101425826.022       -3832.564          44.000  
R15  24220982.109   129429658.803        3687.729          44.000    24220994.869   100667650.455        2868.191          46.000  
E33  24894780.405   130822951.570        -177.456          47.000    24894782.886   100240970.884        -136.009          53.000  
J03  37965426.673   199509636.759        -328.914          45.000    37965427.150   155462072.879        -256.313          48.000  
J07  38242900.878   200967777.006        -523.929          39.000    38242900.630   156598282.592        -408.638          46.000  
G29  26321693.103   138321393.861       -3017.489          37.000    26321703.650   107782937.532       -2351.580          31.000  
G14  25050369.540   131640567.333         349.812          38.000    25050372.651   102577095.846         272.432          37.000  
G22  25134694.080   132083719.811         918.754          38.000                                                                  
G23  24964096.980   131187220.183        2625.582          38.000    24964098.796   102223820.562        2045.912          38.000  
E30  28646281.855   150537242.199         829.098          34.000                                                                  
J04                                                                  39869815.853   163260230.299        -521.698          49.000  
> 2025 10 10 00 43 21.0030000  0 42                     
G05  21742160.708   114255801.699       -1782.849          48.000    21742159.463    89030503.409       -1389.166          47.000  
G13  21412770.393   112524841.416       -2115.164          48.000                                                                  
G15  21156646.892   111178904.241         183.962          48.000    21156644.972    86632924.574         143.393          47.000  
G18  23317159.930   122532478.872        1288.338          45.000    23317159.174    95479876.392        1004.038          44.000  
G20  23375376.041   122838389.800       -3172.623          44.000                                                                  
G21  23776531.672   124946476.993       -3051.622          42.000    23776533.294    97360908.220       -2377.840          43.000  
C01  38122432.498   198513503.516        -526.410          47.000    38122428.544   153503216.944        -406.832          47.000  
C02  40237973.591   209529671.984        -460.846          37.000    40237969.416   162021622.428        -356.050          39.000  
C06  40472833.967   210752661.404         821.335          37.000    40472835.784   162967338.340         635.287          40.000  
C08  38085347.528   198320388.882         219.517          45.000    38085339.828   153353877.209         169.729          48.000  
C13  38744713.199   201753885.296         256.247          46.000    38744714.098   156008904.353         198.223          45.000  
C16  40239451.281   209537374.802         764.027          42.000    40239454.917   162027607.354         590.883          41.000  
R14  21972099.167   117123658.681        1706.153          53.000    21972102.241    91096196.650        1327.092          50.000  
R13  23275202.174   124288269.106       -2311.278          43.000                                                                  
R05  22732742.888   121519534.840        1351.945          50.000    22732744.194    94515210.486        1051.672          48.000  
R20  22486058.496   120243057.802         944.307          41.000    22486061.870    93522396.970         734.485          49.000  
R19  21719526.053   116184808.078       -3088.147          52.000    21719524.670    90365952.813       -2401.801          50.000  
R03  22959558.270   122904302.140       -2574.661          48.000    22959559.018    95592229.369       -2002.471          46.000  
G24  22998582.518   120858341.988        2864.351          43.000    22998584.792    94175372.013        2231.864          42.000  
G30  25389111.758   133420639.346       -3645.510          36.000    25389116.518   103964168.169       -2840.378          29.000  
E07  26049752.723   136892368.642       -2307.938          45.000    26049758.245   104891573.870       -1768.344          49.000  
E19  26324648.896   138336966.943        1210.828          38.000    26324653.819   105998475.410         928.030          40.000  
E26  25411545.564   133538566.591       -2811.959          46.000    25411549.118   102321766.258       -2154.545          51.000  
E29  24552572.961   129024641.545        -363.829          47.000    24552575.710    98863045.415        -278.763          53.000  
C19  23648137.575   123142056.010         430.907          50.000                                                                  
C20  23883684.830   124368609.772       -1544.194          51.000                                                                  
C03  38488835.652   200421455.736        -520.039          43.000    38488830.636   154978564.829        -402.353          44.000  
C04  38038342.408   198075623.810        -551.588          45.000    38038336.282   153164611.725        -426.369          46.000  
C38  37134877.822   193371046.071           7.120          49.000                                                                  
C37  25162930.975   131029983.414       -1309.508          46.000                                                                  
R04  21105351.889   113018196.884        -704.631          53.000    21105349.630    87903032.518        -548.026          51.000  
R18  24430121.767   130409539.950       -4927.645          44.000    24430136.529   101429658.522       -3832.632          44.000  
R15  24220291.968   129425971.005        3687.876          44.000    24220304.764   100664782.205        2868.221          46.000  
E33  24894814.189   130823129.249        -177.820          47.000    24894816.616   100241107.026        -136.235          52.000  
J03  37965489.333   199509965.740        -329.054          45.000    37965489.739   155462329.222        -256.345          48.000  
J07  38243000.687   200968301.399        -524.144          39.000    38243000.495   156598691.184        -408.486          46.000  
G29  26322267.247   138324411.508       -3017.367          36.000    26322277.563   107785288.959       -2351.836          31.000  
G14  25050303.015   131640217.793         348.967          38.000    25050306.120   102576823.469         271.825          37.000  
G22  25134519.314   132082801.282         918.746          38.000                                                                  
G23  24963597.362   131184594.495        2625.737          38.000    24963599.037   102221774.599        2045.542          38.000  
E30  28646124.071   150536413.452         828.721          34.000                                                                  
J04                                                                  39869943.243   163260751.889        -521.576          49.000  
> 2025 10 10 00 43 22.0030000  0 42                     
G05  21742499.973   114257584.633       -1783.289          48.000    21742498.712    89031892.707       -1389.612          47.000  
G13  21413172.997   112526956.628       -2115.541          48.000                                                                  
G15  21156611.935   111178720.362         183.493          48.000    21156610.049    86632781.290         143.066          47.000  
G18  23316914.806   122531190.765        1287.694          44.000    23316914.062    95478872.677        1003.456          44.000  
G20  23375979.805   122841562.355       -3173.016          43.000                                                                  
G21  23777112.366   124949528.539       -3051.944          42.000    23777114.010    97363286.050       -2378.217          43.000  
C01  38122533.628   198514029.722        -526.490          47.000    38122529.604   153503623.848        -407.248          48.000  
C02  40238062.145   209530132.538        -460.562          37.000    40238057.869   162021978.580        -356.394          40.000  
C06  40472676.137   210751839.730         821.289          37.000    40472677.947   162966702.974         635.378          41.000  
C08  38085305.377   198320169.312         219.430          45.000    38085297.677   153353707.421         169.559          48.000  
C13  38744663.957   201753628.830         256.289          46.000    38744664.830   156008706.040         198.267          45.000  
C16  40239304.569   209536610.834         763.510          42.000    40239308.226   162027016.596         590.613          42.000  
R14  21971779.183   117121952.754        1705.302          53.000    21971782.293    91094869.821        1326.365          50.000  
R13  23275634.927   124290580.679       -2312.254          43.000                                                                  
R05  22732489.939   121518182.857        1351.739          50.000    22732491.262    94514158.952        1051.310          48.000  
R20  22485881.942   120242113.907         943.265          41.000    22485885.414    93521662.835         733.571          49.000  
R19  21720103.383   116187896.408       -3088.880          52.000    21720102.029    90368354.842       -2402.368          50.000  
R03  22960039.230   122906876.808       -2574.808          48.000    22960040.036    95594231.887       -2002.645          46.000  
G24  22998037.547   120855477.916        2863.603          44.000    22998039.764    94173140.259        2231.458          42.000  
G30  25389805.553   133424285.281       -3645.946          36.000    25389810.336   103967009.138       -2840.665          29.000  
E07  26050191.840   136894676.567       -2308.204          45.000    26050197.405   104893342.279       -1768.481          50.000  
E19  26324418.577   138335756.144        1210.302          38.000    26324423.366   105997547.647         927.637          41.000  
E26  25412080.878   133541378.769       -2812.628          46.000    25412084.264   102323921.040       -2155.107          51.000  
E29  24552642.347   129025005.524        -364.343          47.000    24552644.830    98863324.306        -279.100          54.000  
C19  23648054.758   123141625.100         430.607          50.000                                                                  
C20  23883981.412   124370153.996       -1544.504          51.000                                                                  
C03  38488935.498   200421975.865        -520.421          43.000    38488930.508   154978967.015        -402.198          45.000  
C04  38038448.322   198076175.207        -551.644          45.000    38038442.202   153165038.083        -426.504          47.000  
C38  37134876.124   193371038.905           6.914          49.000                                                                  
C37  25163182.538   131031293.185       -1310.234          46.000                                                                  
R04  21105483.480   113018901.528        -704.997          53.000    21105481.232    87903580.571        -548.187          51.000  
R18  24431044.880   130414467.426       -4927.711          45.000    24431059.590   101433490.946       -3832.452          44.000  
R15  24219601.888   129422283.142        3687.737          44.000    24219614.563   100661913.888        2868.218          46.000  
E33  24894848.166   130823307.348        -178.569          47.000    24894850.542   100241243.492        -136.865          53.000  
J03  37965551.942   199510294.726        -329.186          45.000    37965552.379   155462585.583        -256.613          48.000  
J07  38243100.473   200968825.685        -524.214          39.000    38243100.238   156599099.740        -408.799          46.000  
G29  26322841.305   138327429.080       -3017.465          36.000    26322851.466   107787640.268       -2351.194          32.000  
G14  25050236.590   131639868.607         348.669          38.000    25050239.605   102576551.375         271.806          37.000  
G22  25134344.587   132081883.076         917.791          38.000                                                                  
G23  24963097.713   131181968.717        2625.489          38.000    24963099.353   102219728.515        2046.085          38.000  
E30  28645966.186   150535584.945         828.258          34.000                                                                  
J04                                                                  39870070.601   163261273.363        -521.472          49.000  
> 2025 10 10 00 43 23.0030000  0 42                     
G05  21742839.328   114259367.720       -1783.191          48.000    21742838.018    89033282.118       -1389.362          47.000  
G13  21413575.502   112529071.844       -2115.272          48.000                                                                  
G15  21156576.999   111178536.537         183.688          48.000    21156575.112    86632638.054         143.126          47.000  
G18  23316669.741   122529902.972        1287.517          44.000    23316668.979    95477869.196        1003.440          44.000  
G20  23376583.458   122844734.964       -3172.589          43.000                                                                  
G21  23777693.024   124952580.081       -3051.671          42.000    23777694.722    97365663.858       -2377.765          42.000  
C01  38122634.728   198514555.657        -525.948          47.000    38122630.557   153504030.527        -406.613          47.000  
C02  40238150.464   209530592.847        -460.383          37.000    40238146.298   162022334.506        -355.725          39.000  
C06  40472518.169   210751017.881         821.658          37.000    40472520.197   162966067.476         635.441          40.000  
C08  38085263.140   198319949.426         219.985          45.000    38085255.505   153353537.387         170.108          48.000  
C13  38744614.665   201753372.048         256.921          46.000    38744615.580   156008507.491         198.590          45.000  
C16  40239157.708   209535846.635         764.149          42.000    40239161.453   162026425.694         590.945          41.000  
R14  21971459.200   117120247.191        1705.269          53.000    21971462.289    91093543.273        1326.341          50.000  
R13  23276067.937   124292892.728       -2312.498          43.000                                                                  
R05  22732236.982   121516830.710        1352.233          50.000    22732238.435    94513107.283        1051.598          48.000  
R20  22485705.593   120241170.567         943.133          40.000    22485709.138    93520929.126         733.446          49.000  
R19  21720680.724   116190985.156       -3089.026          52.000    21720679.472    90370757.201       -2402.625          50.000  
R03  22960520.116   122909451.253       -2574.425          48.000    22960520.962    95596234.227       -2002.185          46.000  
G24  22997492.515   120852613.904        2863.870          44.000    22997494.797    94170908.563        2231.708          42.000  
G30  25390499.394   133427931.107       -3645.807          36.000    25390503.944   103969850.090       -2841.120          29.000  
E07  26050630.950   136896984.247       -2307.531          45.000    26050636.651   104895110.509       -1768.216          50.000  
E19  26324187.968   138334545.210        1210.858          38.000    26324192.890   105996619.817         927.565          41.000  
E26  25412615.942   133544190.990       -2812.292          46.000    25412619.374   102326075.866       -2154.913          51.000  
E29  24552711.600   129025369.411        -363.962          47.000    24552714.093    98863603.127        -278.745          54.000  
C19  23647971.975   123141194.042         431.021          50.000                                                                  
C20  23884277.935   124371698.087       -1544.087          51.000                                                                  
C03  38489035.351   200422495.721        -519.971          43.000    38489030.319   154979369.004        -402.038          44.000  
C04  38038554.135   198076726.292        -551.041          45.000    38038547.999   153165464.239        -426.370          46.000  
C38  37134874.399   193371031.461           7.477          49.000                                                                  
C37  25163434.201   131032603.208       -1310.205          46.000                                                                  
R04  21105615.087   113019606.070        -704.610          53.000    21105612.792    87904128.553        -548.012          51.000  
R18  24431967.830   130419394.618       -4927.118          45.000    24431982.689   101437323.167       -3832.227          44.000  
R15  24218911.763   129418594.993        3688.294          44.000    24218924.267   100659045.359        2868.641          46.000  
E33  24894881.907   130823485.649        -178.575          47.000    24894884.339   100241380.108        -136.736          53.000  
J03  37965614.492   199510623.517        -328.771          45.000    37965614.896   155462841.780        -256.213          48.000  
J07  38243200.124   200969349.723        -523.923          39.000    38243199.959   156599508.066        -408.254          46.000  
G29  26323415.456   138330446.396       -3017.535          36.000    26323425.273   107789991.344       -2350.467          32.000  
G14  25050170.182   131639519.612         348.723          38.000    25050173.091   102576279.441         271.997          37.000  
G22  25134169.971   132080964.958         917.810          38.000                                                                  
G23  24962598.013   131179342.625        2626.244          38.000    24962599.589   102217682.237        2045.994          38.000  
E30  28645808.657   150534756.511         828.328          34.000                                                                  
J04                                                                  39870197.794   163261794.574        -521.173          49.000  
> 2025 10 10 00 43 24.0030000  0 42                     
G05  21743178.688   114261151.181       -1783.820          48.000    21743177.316    89034671.833       -1390.082          47.000  
G13  21413977.945   112531187.300       -2115.859          48.000                                                                  
G15  21156542.096   111178353.006         183.089          48.000    21156540.167    86632495.039         142.684          47.000  
G18  23316424.752   122528615.704        1286.842          44.000    23316424.096    95476866.147        1002.586          44.000  
G20  23377187.234   122847907.851       -3173.153          44.000                                                                  
G21  23778273.723   124955631.851       -3052.218          42.000    23778275.395    97368041.853       -2378.264          42.000  
C01  38122735.644   198515081.541        -526.176          47.000    38122731.622   153504437.176        -406.834          48.000  
C02  40238238.825   209531053.115        -460.352          37.000    40238234.718   162022690.425        -356.323          40.000  
C06  40472360.340   210750196.013         821.846          37.000    40472362.441   162965431.951         635.563          41.000  
C08  38085220.911   198319729.466         219.858          45.000    38085213.207   153353367.302         170.026          48.000  
C13  38744565.464   201753115.150         256.810          46.000    38744566.207   156008308.842         198.497          45.000  
C16  40239011.046   209535082.500         763.962          42.000    40239014.765   162025834.816         590.663          41.000  
R14  21971139.361   117118542.261        1704.296          53.000    21971142.399    91092217.218        1325.648          50.000  
R13  23276500.931   124295205.503       -2313.608          43.000                                                                  
R05  22731984.056   121515478.643        1351.795          50.000    22731985.463    94512055.666        1051.508          48.000  
R20  22485529.370   120240228.036         941.986          41.000    22485532.934    93520196.046         732.625          49.000  
R19  21721258.204   116194074.546       -3089.990          52.000    21721256.906    90373160.056       -2403.198          50.000  
R03  22961001.048   122912025.708       -2574.696          48.000    22961001.771    95598236.590       -2002.802          46.000  
G24  22996947.586   120849750.206        2863.073          44.000    22996949.853    94168677.116        2231.119          42.000  
G30  25391193.328   133431577.104       -3646.129          36.000    25391197.851   103972691.130       -2841.787          29.000  
E07  26051070.039   136899291.937       -2307.950          45.000    26051075.731   104896878.733       -1768.361          50.000  
E19  26323957.489   138333334.432        1210.617          38.000    26323962.526   105995692.065         927.589          41.000  
E26  25413151.312   133547003.505       -2812.852          46.000    25413154.603   102328230.905       -2155.355          51.000  
E29  24552780.833   129025733.441        -364.246          47.000    24552783.348    98863882.065        -279.126          54.000  
C19  23647889.201   123140763.052         430.668          50.000                                                                  
C20  23884574.593   124373242.284       -1544.505          51.000                                                                  
C03  38489135.191   200423015.514        -519.987          43.000    38489130.150   154979770.935        -402.084          45.000  
C04  38038660.102   198077277.352        -551.291          45.000    38038653.846   153165890.353        -426.271          47.000  
C38  37134872.146   193371023.987           7.107          49.000                                                                  
C37  25163685.750   131033913.709       -1311.014          46.000                                                                  
R04  21105746.551   113020310.745        -704.996          53.000    21105744.407    87904676.629        -548.162          51.000  
R18  24432890.943   130424321.748       -4927.462          45.000    24432905.795   101441155.311       -3832.220          44.000  
R15  24218221.548   129414906.843        3687.807          44.000    24218233.940   100656176.821        2868.389          46.000  
E33  24894915.967   130823664.374        -179.194          47.000    24894918.424   100241517.055        -137.285          53.000  
J03  37965677.095   199510952.340        -328.997          45.000    37965677.409   155463098.005        -256.428          48.000  
J07  38243299.780   200969873.707        -524.299          39.000    38243299.672   156599916.364        -408.383          46.000  
G29  26323989.698   138333463.582       -3017.304          36.000    26323999.172   107792342.409       -2350.593          33.000  
G14  25050103.776   131639171.026         347.748          38.000    25050106.717   102576007.818         271.234          37.000  
G22  25133995.365   132080047.168         917.063          39.000                                                                  
G23  24962098.261   131176716.478        2625.958          38.000    24962099.780   102215635.870        2046.398          38.000  
E30  28645650.848   150533928.297         828.153          34.000                                                                  
J04                                                                  39870325.046   163262315.678        -521.143          50.000  
> 2025 10 10 00 43 25.0030000  0 42                     
G05  21743518.287   114262935.363       -1784.497          48.000    21743516.857    89036062.099       -1390.472          47.000  
G13  21414380.529   112533303.307       -2116.231          48.000                                                                  
G15  21156507.204   111178170.065         182.855          48.000    21156505.298    86632352.492         142.456          47.000  
G18  23316179.976   122527329.298        1286.117          44.000    23316179.225    95475863.743        1002.263          44.000  
G20  23377791.204   122851081.346       -3173.663          43.000                                                                  
G21  23778854.549   124958684.147       -3052.351          42.000    23778856.219    97370420.266       -2378.545          43.000  
C01  38122836.649   198515607.699        -526.231          47.000    38122832.666   153504844.033        -406.771          47.000  
C02  40238327.384   209531513.649        -460.526          37.000    40238323.200   162023046.525        -356.128          39.000  
C06  40472202.516   210749374.496         821.284          37.000    40472204.695   162964796.714         635.050          40.000  
C08  38085178.717   198319509.760         219.673          45.000    38085170.998   153353197.402         170.001          48.000  
C13  38744516.180   201752858.487         256.689          46.000    38744516.906   156008110.363         198.556          45.000  
C16  40238864.291   209534318.710         763.914          42.000    40238868.062   162025244.206         590.577          41.000  
R14  21970819.790   117116838.305        1703.602          53.000    21970822.768    91090891.918        1325.094          50.000  
R13  23276934.220   124297519.327       -2314.192          43.000                                                                  
R05  22731731.154   121514126.974        1351.626          51.000    22731732.618    94511004.376        1051.306          48.000  
R20  22485353.368   120239286.625         941.016          41.000    22485356.850    93519463.840         731.780          49.000  
R19  21721835.951   116197164.893       -3090.656          52.000    21721834.682    90375563.654       -2403.845          50.000  
R03  22961482.070   122914600.519       -2574.825          48.000    22961482.685    95600239.204       -2002.633          46.000  
G24  22996402.736   120846887.114        2862.818          44.000    22996405.033    94166446.130        2231.021          42.000  
G30  25391887.191   133435223.546       -3646.447          36.000    25391891.761   103975532.519       -2841.681          29.000  
E07  26051509.234   136901599.938       -2307.959          45.000    26051514.935   104898647.200       -1768.408          50.000  
E19  26323727.281   138332124.069        1210.257          38.000    26323732.202   105994764.651         927.265          41.000  
E26  25413686.488   133549816.623       -2813.326          46.000    25413689.839   102330386.401       -2155.638          51.000  
E29  24552850.038   129026097.946        -364.589          47.000    24552852.799    98864161.355        -279.333          54.000  
C19  23647806.568   123140332.455         430.456          50.000                                                                  
C20  23884871.221   124374786.887       -1544.743          51.000                                                                  
C03  38489235.101   200423535.597        -520.073          43.000    38489230.022   154980173.091        -402.004          44.000  
C04  38038765.930   198077828.687        -551.376          45.000    38038759.661   153166316.676        -426.308          46.000  
C38  37134870.366   193371016.771           7.264          49.000                                                                  
C37  25163937.547   131035225.002       -1311.512          46.000                                                                  
R04  21105878.193   113021015.859        -705.171          53.000    21105876.187    87905225.053        -548.451          51.000  
R18  24433813.962   130429249.117       -4927.331          45.000    24433828.895   101444987.662       -3832.337          44.000  
R15  24217531.285   129411218.992        3687.979          44.000    24217543.744   100653308.528        2868.192          46.000  
E33  24894950.188   130823843.859        -179.756          47.000    24894952.638   100241654.578        -137.661          53.000  
J03  37965739.758   199511281.522        -329.188          45.000    37965740.077   155463354.507        -256.580          48.000  
J07  38243399.594   200970397.964        -524.306          39.000    38243399.493   156600324.864        -408.411          46.000  
G29  26324564.091   138336481.009       -3017.344          37.000    26324573.185   107794693.651       -2351.091          33.000  
G14  25050037.591   131638823.162         347.768          38.000    25050040.521   102575736.784         270.656          37.000  
G22  25133820.743   132079129.986         916.879          39.000                                                                  
G23  24961598.532   131174090.563        2625.971          38.000    24961600.027   102213589.733        2045.900          38.000  
E30  28645493.373   150533100.684         828.020          34.000                                                                  
J04                                                                  39870452.388   163262836.936        -521.222          49.000  
> 2025 10 10 00 43 26.0030000  0 42                     
G05  21743857.812   114264719.849       -1784.711          48.000    21743856.431    89037452.608       -1390.594          47.000  
G13  21414783.225   112535419.482       -2116.323          48.000                                                                  
G15  21156472.612   111177987.350         182.520          47.000    21156470.503    86632210.119         142.139          47.000  
G18  23315935.252   122526043.357        1285.637          44.000    23315934.552    95474861.722        1001.700          44.000  
G20  23378395.207   122854255.058       -3173.935          43.000                                                                  
G21  23779435.422   124961736.609       -3052.564          42.000    23779437.052    97372798.803       -2378.554          43.000  
C01  38122937.671   198516133.755        -526.163          47.000    38122933.673   153505250.811        -406.791          47.000  
C02  40238415.739   209531974.066        -460.625          37.000    40238411.675   162023402.550        -355.906          39.000  
C06  40472044.831   210748552.912         821.560          37.000    40472046.902   162964161.428         635.120          40.000  
C08  38085136.582   198319289.861         220.022          45.000    38085128.858   153353027.374         170.133          48.000  
C13  38744466.854   201752601.632         256.974          46.000    38744467.573   156007911.761         198.542          45.000  
C16  40238717.690   209533554.897         763.896          42.000    40238721.417   162024653.573         590.298          41.000  
R14  21970500.201   117115134.944        1703.114          53.000    21970503.117    91089567.089        1324.591          50.000  
R13  23277367.640   124299833.852       -2314.881          43.000                                                                  
R05  22731478.299   121512775.317        1351.584          51.000    22731479.746    94509953.090        1051.268          47.000  
R20  22485177.476   120238345.943         940.281          40.000    22485180.940    93518732.204         731.198          49.000  
R19  21722413.754   116200255.803       -3091.217          52.000    21722412.501    90377967.691       -2404.224          50.000  
R03  22961963.195   122917175.315       -2574.822          48.000    22961963.761    95602241.822       -2002.678          46.000  
G24  22995857.889   120844024.267        2862.671          44.000    22995860.277    94164215.355        2230.645          42.000  
G30  25392581.130   133438870.099       -3646.982          36.000    25392585.755   103978373.926       -2841.302          29.000  
E07  26051948.437   136903907.889       -2307.995          45.000    26051954.164   104900415.626       -1768.429          49.000  
E19  26323496.840   138330913.760        1210.232          38.000    26323501.976   105993837.258         927.397          40.000  
E26  25414221.732   133552629.950       -2813.429          46.000    25414225.292   102332542.067       -2155.760          51.000  
E29  24552919.464   129026462.523        -364.669          47.000    24552922.185    98864440.710        -279.413          53.000  
C19  23647723.917   123139901.869         430.523          50.000                                                                  
C20  23885167.984   124376331.520       -1544.709          51.000                                                                  
C03  38489334.999   200424055.575        -520.116          43.000    38489329.826   154980575.181        -402.068          44.000  
C04  38038871.764   198078379.921        -551.245          45.000    38038865.507   153166742.932        -426.290          46.000  
C38  37134868.677   193371009.467           7.357          49.000                                                                  
C37  25164189.424   131036536.715       -1311.722          46.000                                                                  
R04  21106009.870   113021721.045        -705.240          53.000    21106007.823    87905773.532        -548.608          51.000  
R18  24434736.975   130434176.368       -4927.272          45.000    24434751.950   101448819.921       -3832.178          44.000  
R15  24216841.046   129407531.050        3687.905          44.000    24216853.625   100650440.149        2868.275          46.000  
E33  24894984.344   130824023.703        -179.974          47.000    24894986.897   100241792.385        -137.970          52.000  
J03  37965802.441   199511610.664        -329.122          45.000    37965802.681   155463610.980        -256.494          48.000  
J07  38243499.414   200970922.113        -524.119          39.000    38243499.245   156600733.292        -408.425          46.000  
G29  26325138.529   138339498.302       -3017.236          37.000    26325147.152   107797044.802       -2351.301          33.000  
G14  25049971.499   131638475.681         346.895          38.000    25049974.363   102575466.004         270.318          37.000  
G22  25133646.239   132078213.064         916.769          39.000                                                                  
G23  24961098.733   131171464.515        2626.021          38.000    24961100.338   102211543.471        2046.009          38.000  
E30  28645335.896   150532273.339         827.261          34.000                                                                  
J04                                                                  39870579.694   163263358.050        -521.106          50.000  
> 2025 10 10 00 43 27.0030000  0 42                     
G05  21744197.544   114266504.769       -1784.985          48.000    21744196.111    89038843.446       -1390.833          47.000  
G13  21415185.935   112537535.932       -2116.381          48.000                                                                  
G15  21156437.802   111177804.956         182.338          47.000    21156435.759    86632067.982         142.109          47.000  
G18  23315690.659   122524757.988        1285.325          44.000    23315689.925    95473860.131        1001.582          44.000  
G20  23378999.245   122857429.076       -3173.910          43.000                                                                  
G21  23780016.340   124964789.320       -3052.668          42.000    23780017.942    97375177.532       -2378.582          43.000  
C01  38123038.774   198516659.793        -525.983          47.000    38123034.692   153505657.574        -406.603          48.000  
C02  40238504.190   209532434.485        -460.250          37.000    40238500.083   162023758.568        -355.872          40.000  
C06  40471886.979   210747731.367         821.726          37.000    40471889.121   162963526.146         635.618          41.000  
C08  38085094.283   198319069.933         219.978          45.000    38085086.593   153352857.314         170.067          48.000  
C13  38744417.525   201752344.778         256.876          46.000    38744418.253   156007713.136         198.622          45.000  
C16  40238571.061   209532791.153         763.949          42.000    40238574.732   162024063.002         590.511          42.000  
R14  21970180.757   117113432.284        1702.483          53.000    21970183.656    91088242.798        1324.131          50.000  
R13  23277801.223   124302149.156       -2315.550          43.000                                                                  
R05  22731225.562   121511423.740        1351.712          51.000    22731226.854    94508901.865        1051.223          48.000  
R20  22485001.748   120237406.107         939.615          41.000    22485005.140    93518001.209         730.756          49.000  
R19  21722991.679   116203347.388       -3091.754          52.000    21722990.481    90380372.250       -2404.663          50.000  
R03  22962444.121   122919750.200       -2574.832          48.000    22962444.777    95604244.498       -2002.568          46.000  
G24  22995313.086   120841161.766        2862.407          44.000    22995315.619    94161984.828        2230.553          42.000  
G30  25393274.924   133442516.783       -3646.439          36.000    25393279.723   103981215.557       -2841.916          29.000  
E07  26052387.633   136906215.860       -2307.788          45.000    26052393.245   104902184.070       -1768.386          50.000  
E19  26323266.592   138329703.575        1210.233          37.000    26323271.787   105992909.987         927.347          41.000  
E26  25414757.255   133555443.610       -2813.721          46.000    25414760.673   102334697.978       -2155.936          51.000  
E29  24552988.882   129026827.286        -364.846          47.000    24552991.479    98864720.198        -279.434          54.000  
C19  23647641.335   123139471.383         430.627          50.000                                                                  
C20  23885464.561   124377876.286       -1544.637          51.000                                                                  
C03  38489434.934   200424575.519        -519.965          43.000    38489429.641   154980977.239        -402.174          45.000  
C04  38038977.591   198078931.150        -551.103          45.000    38038971.335   153167169.168        -426.152          47.000  
C38  37134867.292   193371002.152           7.399          49.000                                                                  
C37  25164441.485   131037848.965       -1312.424          46.000                                                                  
R04  21106141.545   113022426.398        -705.253          53.000    21106139.457    87906322.133        -548.552          51.000  
R18  24435660.053   130439103.573       -4927.012          45.000    24435675.073   101452652.151       -3832.097          44.000  
R15  24216150.841   129403843.081        3688.163          44.000    24216163.479   100647571.751        2868.469          46.000  
E33  24895018.412   130824204.017        -180.423          47.000    24895021.184   100241930.541        -138.194          53.000  
J03  37965865.051   199511939.873        -329.086          45.000    37965865.316   155463867.509        -256.617          48.000  
J07  38243599.171   200971446.239        -523.830          39.000    38243598.971   156601141.696        -408.254          46.000  
G29  26325712.666   138342515.597       -3017.301          37.000    26325720.459   107799395.923       -2351.124          32.000  
G14  25049905.442   131638128.590         347.255          38.000    25049908.320   102575195.553         270.234          37.000  
G22  25133471.845   132077296.526         916.399          39.000                                                                  
G23  24960599.080   131168838.446        2626.275          39.000    24960600.611   102209497.162        2046.638          38.000  
E30  28645178.586   150531446.243         827.281          34.000                                                                  
J04                                                                  39870706.969   163263879.087        -520.905          49.000  
> 2025 10 10 00 43 28.0030000  0 42                     
G05  21744537.310   114268289.986       -1785.339          48.000    21744535.848    89040234.530       -1391.119          47.000  
G13  21415588.794   112539652.539       -2116.670          48.000                                                                  
G15  21156403.067   111177622.745         182.189          47.000    21156401.069    86631926.006         141.829          47.000  
G18  23315446.083   122523473.071        1284.857          44.000    23315445.411    95472858.890        1001.330          44.000  
G20  23379603.242   122860603.288       -3174.313          43.000                                                                  
G21  23780597.314   124967842.171       -3052.840          42.000    23780598.915    97377556.370       -2378.924          43.000  
C01  38123139.720   198517185.690        -525.780          47.000    38123135.702   153506064.233        -406.548          48.000  
C02  40238592.594   209532894.786        -460.150          37.000    40238588.442   162024114.506        -355.841          39.000  
C06  40471729.254   210746909.784         821.462          37.000    40471731.332   162962890.834         635.352          40.000  
C08  38085051.905   198318849.843         220.291          45.000    38085044.381   153352687.125         170.324          48.000  
C13  38744368.265   201752087.741         257.138          46.000    38744369.008   156007514.378         198.706          45.000  
C16  40238424.393   209532027.347         764.065          42.000    40238428.066   162023472.365         590.812          41.000  
R14  21969861.399   117111730.166        1701.991          53.000    21969864.296    91086918.930        1323.829          50.000  
R13  23278234.883   124304465.080       -2316.162          43.000                                                                  
R05  22730972.681   121510072.116        1351.730          51.000    22730974.015    94507850.600        1051.376          48.000  
R20  22484826.121   120236466.972         938.795          41.000    22484829.469    93517270.774         730.257          49.000  
R19  21723569.753   116206439.512       -3092.316          52.000    21723568.475    90382777.233       -2405.139          50.000  
R03  22962925.068   122922325.031       -2574.781          48.000    22962925.704    95606247.151       -2002.595          46.000  
G24  22994768.388   120838299.488        2862.201          44.000    22994770.904    94159754.488        2230.290          42.000  
G30  25393968.927   133446163.556       -3646.610          36.000    25393973.896   103984057.164       -2841.759          29.000  
E07  26052826.804   136908523.739       -2307.657          45.000    26052832.474   104903952.445       -1768.221          50.000  
E19  26323036.156   138328493.420        1210.308          37.000    26323041.372   105991982.732         927.376          40.000  
E26  25415292.793   133558257.446       -2813.828          46.000    25415296.039   102336854.034       -2156.029          51.000  
E29  24553058.198   129027192.091        -364.667          47.000    24553060.931    98864999.727        -279.451          53.000  
C19  23647558.630   123139040.885         430.622          50.000                                                                  
C20  23885761.142   124379421.061       -1544.704          51.000                                                                  
C03  38489534.616   200425095.341        -519.789          43.000    38489529.469   154981379.182        -401.742          44.000  
C04  38039083.350   198079482.249        -551.071          45.000    38039077.155   153167595.309        -426.168          46.000  
C38  37134865.908   193370994.701           7.694          49.000                                                                  
C37  25164693.555   131039161.595       -1312.872          46.000                                                                  
R04  21106273.410   113023131.778        -705.286          53.000    21106271.126    87906870.764        -548.566          51.000  
R18  24436583.050   130444030.604       -4926.868          45.000    24436598.099   101456484.230       -3832.045          44.000  
R15  24215460.676   129400154.955        3688.212          44.000    24215473.287   100644703.243        2868.547          46.000  
E33  24895052.904   130824384.669        -180.697          47.000    24895055.516   100242068.966        -138.447          52.000  
J03  37965927.631   199512269.020        -328.848          45.000    37965927.891   155464123.980        -256.315          48.000  
J07  38243698.927   200971970.217        -523.850          39.000    38243698.678   156601549.998        -408.146          46.000  
G29  26326286.738   138345532.703       -3016.974          36.000    26326293.626   107801746.940       -2351.094          32.000  
G14  25049839.495   131637781.864         346.763          38.000    25049842.354   102574925.363         270.078          37.000  
G22  25133297.466   132076380.186         916.424          38.000                                                                  
G23  24960099.289   131166212.210        2626.256          39.000    24960100.823   102207450.763        2046.444          38.000  
E30  28645021.216   150530619.335         826.900          34.000                                                                  
J04                                                                  39870834.130   163264399.961        -520.776          49.000  
> 2025 10 10 00 43 29.0030000  0 42                     
G05  21744877.078   114270075.415       -1785.254          48.000    21744875.596    89041625.780       -1391.223          47.000  
G13  21415991.589   112541769.192       -2116.461          48.000                                                                  
G15  21156368.459   111177440.648         182.208          47.000    21156366.477    86631784.107         142.028          47.000  
G18  23315201.660   122522188.512        1284.598          44.000    23315200.878    95471857.952        1000.880          44.000  
G20  23380207.310   122863777.612       -3174.194          43.000                                                                  
G21  23781178.397   124970895.063       -3052.564          42.000    23781179.824    97379935.236       -2378.679          43.000  
C01  38123240.749   198517711.372        -525.362          47.000    38123236.647   153506470.720        -406.298          48.000  
C02  40238680.830   209533354.854        -460.028          37.000    40238676.826   162024470.260        -355.782          40.000  
C06  40471571.552   210746088.005         822.118          37.000    40471573.493   162962255.401         635.596          41.000  
C08  38085009.667   198318629.518         220.635          45.000    38085002.021   153352516.752         170.650          48.000  
C13  38744318.859   201751830.432         257.580          46.000    38744319.606   156007315.399         199.263          46.000  
C16  40238277.755   209531263.426         764.133          42.000    40238281.383   162022881.646         591.145          42.000  
R14  21969542.065   117110028.491        1701.634          53.000    21969545.013    91085595.406        1323.566          50.000  
R13  23278668.647   124306781.575       -2316.721          43.000                                                                  
R05  22730719.837   121508720.373        1351.988          51.000    22730721.071    94506799.244        1051.633          48.000  
R20  22484650.515   120235528.462         938.307          41.000    22484654.070    93516540.825         729.819          49.000  
R19  21724147.947   116209532.080       -3092.609          52.000    21724146.627    90385182.562       -2405.273          50.000  
R03  22963406.031   122924899.732       -2574.469          48.000    22963406.738    95608249.694       -2002.467          46.000  
G24  22994223.772   120835437.334        2862.157          44.000    22994226.275    94157524.236        2230.337          42.000  
G30  25394662.898   133449810.302       -3646.205          36.000    25394667.959   103986898.781       -2841.439          29.000  
E07  26053265.893   136910831.451       -2307.410          45.000    26053271.779   104905720.687       -1768.026          50.000  
E19  26322805.895   138327283.222        1210.509          37.000    26322810.935   105991055.433         927.577          41.000  
E26  25415828.288   133561071.403       -2813.814          46.000    25415831.619   102339010.182       -2156.027          51.000  
E29  24553127.698   129027556.871        -364.459          47.000    24553130.271    98865279.235        -279.258          54.000  
C19  23647475.886   123138610.297         430.820          50.000                                                                  
C20  23886057.848   124380965.765       -1544.534          51.000                                                                  
C03  38489634.289   200425614.949        -519.437          43.000    38489629.232   154981780.976        -401.491          45.000  
C04  38039189.214   198080033.131        -550.436          45.000    38039182.952   153168021.282        -425.707          47.000  
C38  37134864.747   193370987.045           7.980          49.000                                                                  
C37  25164945.638   131040474.529       -1312.796          46.000                                                                  
R04  21106405.149   113023837.102        -705.085          53.000    21106402.815    87907419.348        -548.395          51.000  
R18  24437506.082   130448957.392       -4926.397          45.000    24437521.118   101460316.119       -3831.579          44.000  
R15  24214770.514   129396466.611        3688.736          44.000    24214782.998   100641834.565        2868.809          46.000  
E33  24895087.487   130824565.577        -180.837          47.000    24895089.896   100242207.582        -138.487          53.000  
J03  37965990.206   199512598.044        -328.761          45.000    37965990.647   155464380.360        -256.245          48.000  
J07  38243798.515   200972493.978        -523.143          39.000    38243798.336   156601958.126        -407.891          46.000  
G29  26326860.770   138348549.587       -3016.234          36.000    26326867.090   107804097.732       -2350.653          32.000  
G14  25049773.585   131637435.363         346.632          38.000    25049776.428   102574655.361         269.893          38.000  
G22  25133123.132   132075464.035         915.841          38.000                                                                  
G23  24959599.505   131163585.710        2626.829          39.000    24959601.058   102205404.146        2046.954          38.000  
E30  28644863.892   150529792.530         827.035          34.000                                                                  
J04                                                                  39870961.297   163264920.596        -520.288          49.000  
> 2025 10 10 00 43 30.0030000  0 42                     
G05  21745216.836   114271861.004       -1785.693          48.000    21745215.359    89043017.142       -1391.486          47.000  
G13  21416394.448   112543885.856       -2116.706          48.000                                                                  
G15  21156333.891   111177258.594         181.957          48.000    21156331.766    86631642.252         141.771          47.000  
G18  23314957.257   122520904.265        1283.992          45.000    23314956.421    95470857.237        1000.561          44.000  
G20  23380811.407   122866951.974       -3174.472          43.000                                                                  
G21  23781759.304   124973947.954       -3053.073          42.000    23781760.788    97382314.093       -2378.751          43.000  
C01  38123341.760   198518236.788        -525.401          47.000    38123337.477   153506876.999        -406.211          47.000  
C02  40238769.170   209533814.614        -459.541          37.000    40238765.185   162024825.779        -355.299          39.000  
C06  40471413.753   210745266.029         821.406          37.000    40471415.625   162961619.773         636.005          40.000  
C08  38084967.340   198318408.860         220.798          45.000    38084959.601   153352346.130         170.729          48.000  
C13  38744269.373   201751572.784         257.667          46.000    38744270.057   156007116.169         199.421          45.000  
C16  40238130.953   209530499.289         764.188          42.000    40238134.702   162022290.774         590.781          41.000  
R14  21969223.042   117108327.201        1701.094          53.000    21969225.859    91084272.182        1323.111          50.000  
R13  23279102.567   124309098.530       -2317.154          43.000                                                                  
R05  22730466.905   121507368.453        1351.979          51.000    22730468.109    94505747.764        1051.429          47.000  
R20  22484475.146   120234590.485         937.855          41.000    22484478.757    93515811.294         729.374          49.000  
R19  21724726.098   116212625.032       -3093.164          52.000    21724724.803    90387588.193       -2405.774          50.000  
R03  22963886.968   122927474.232       -2574.419          48.000    22963887.706    95610252.070       -2002.285          46.000  
G24  22993679.194   120832575.248        2861.887          44.000    22993681.611    94155294.036        2230.301          42.000  
G30  25395356.792   133453456.946       -3646.379          36.000    25395362.020   103989740.284       -2841.245          29.000  
E07  26053704.929   136913138.932       -2307.532          45.000    26053710.789   104907488.746       -1767.986          50.000  
E19  26322575.656   138326072.877        1210.332          38.000    26322580.526   105990128.022         927.589          41.000  
E26  25416363.710   133563885.404       -2814.054          46.000    25416367.119   102341166.362       -2156.277          52.000  
E29  24553197.125   129027921.574        -364.785          47.000    24553199.723    98865558.677        -279.430          54.000  
C19  23647393.321   123138179.549         430.748          50.000                                                                  
C20  23886354.351   124382510.324       -1544.569          51.000                                                                  
C03  38489734.085   200426134.271        -519.187          43.000    38489729.033   154982182.565        -401.600          45.000  
C04  38039294.908   198080583.742        -550.574          45.000    38039288.736   153168447.051        -425.766          46.000  
C38  37134863.810   193370979.112           8.067          49.000                                                                  
C37  25165197.824   131041787.726       -1313.560          46.000                                                                  
R04  21106536.840   113024542.313        -705.181          53.000    21106534.469    87907967.842        -548.469          51.000  
R18  24438429.016   130453883.882       -4926.398          45.000    24438443.965   101464147.781       -3831.586          44.000  
R15  24214080.122   129392778.010        3688.715          44.000    24214092.768   100638965.675        2868.945          46.000  
E33  24895121.833   130824746.697        -181.357          47.000    24895124.421   100242346.359        -138.919          53.000  
J03  37966052.742   199512926.858        -328.818          45.000    37966053.226   155464636.576        -256.255          48.000  
J07  38243898.122   200973017.484        -523.701          39.000    38243897.901   156602366.037        -407.823          46.000  
G29  26327434.647   138351566.190       -3016.435          36.000    26327440.759   107806448.299       -2350.643          32.000  
G14  25049707.829   131637089.003         346.734          38.000    25049710.559   102574385.512         269.486          38.000  
G22  25132948.866   132074547.911         916.265          39.000                                                                  
G23  24959099.694   131160958.936        2626.796          39.000    24959101.189   102203357.307        2046.978          37.000  
E30  28644706.674   150528965.768         826.151          34.000                                                                  
J04                                                                  39871088.377   163265440.961        -520.355          49.000  
> 2025 10 10 00 43 31.0030000  0 42                     
G05  21745556.622   114273646.849       -1786.023          48.000    21745555.230    89044408.711       -1391.888          47.000  
G13  21416797.257   112546002.615       -2116.880          48.000                                                                  
G15  21156299.262   111177076.703         181.764          48.000    21156297.110    86631500.515         141.578          47.000  
G18  23314712.936   122519620.405        1283.595          45.000    23314712.078    95469856.827        1000.153          44.000  
G20  23381415.500   122870126.490       -3174.509          43.000                                                                  
G21  23782340.283   124977000.913       -3053.116          42.000    23782341.797    97384693.030       -2379.034          43.000  
C01  38123442.552   198518762.023        -525.062          47.000    38123438.346   153507283.150        -406.163          48.000  
C02  40238857.348   209534274.250        -459.701          37.000    40238853.464   162025181.177        -354.955          40.000  
C06  40471255.788   210744443.911         821.985          37.000    40471257.778   162960984.093         635.507          41.000  
C08  38084924.867   198318188.017         220.965          45.000    38084917.177   153352175.360         170.736          48.000  
C13  38744219.787   201751314.918         257.823          46.000    38744220.514   156006916.780         199.320          45.000  
C16  40237984.225   209529735.063         763.983          42.000    40237987.941   162021699.827         590.923          42.000  
R14  21968903.942   117106626.412        1700.418          53.000    21968906.794    91082949.352        1322.497          50.000  
R13  23279536.561   124311416.121       -2317.959          43.000                                                                  
R05  22730213.950   121506016.454        1351.960          51.000    22730215.182    94504696.211        1051.421          47.000  
R20  22484299.822   120233653.193         937.019          41.000    22484303.498    93515082.289         728.705          49.000  
R19  21725304.266   116215718.484       -3093.726          52.000    21725303.128    90389994.207       -2406.269          50.000  
R03  22964367.899   122930048.630       -2574.388          48.000    22964368.671    95612254.385       -2002.393          46.000  
G24  22993134.581   120829713.341        2861.730          44.000    22993136.871    94153063.990        2229.942          42.000  
G30  25396050.695   133457103.611       -3646.319          36.000    25396056.276   103992581.864       -2841.428          29.000  
E07  26054144.066   136915446.269       -2307.289          45.000    26054149.817   104909256.712       -1767.982          49.000  
E19  26322345.348   138324862.541        1210.203          38.000    26322350.265   105989200.631         927.214          40.000  
E26  25416899.335   133566699.555       -2814.307          46.000    25416902.591   102343322.647       -2156.340          50.000  
E29  24553266.603   129028286.278        -364.747          47.000    24553269.298    98865838.128        -279.511          53.000  
C19  23647310.520   123137748.744         430.728          50.000                                                                  
C20  23886650.881   124384054.847       -1544.518          51.000                                                                  
C03  38489833.764   200426653.428        -518.978          43.000    38489828.798   154982583.998        -401.560          45.000  
C04  38039400.718   198081134.171        -550.281          45.000    38039394.455   153168872.677        -425.681          47.000  
C38  37134862.929   193370971.005           8.187          49.000                                                                  
C37  25165450.030   131043101.262       -1313.724          46.000                                                                  
R04  21106668.582   113025247.523        -705.278          53.000    21106666.050    87908516.336        -548.546          51.000  
R18  24439351.949   130458810.145       -4926.217          45.000    24439366.893   101467979.270       -3831.559          44.000  
R15  24213389.870   129389089.286        3688.739          44.000    24213402.391   100636096.698        2868.968          46.000  
E33  24895156.634   130824928.098        -181.594          47.000    24895159.001   100242485.355        -139.196          52.000  
J03  37966115.248   199513255.570        -328.683          45.000    37966115.790   155464892.714        -256.149          48.000  
J07  38243997.697   200973540.788        -523.565          39.000    38243997.508   156602773.810        -407.824          46.000  
G29  26328008.699   138354582.554       -3016.074          36.000    26328014.495   107808798.694       -2350.289          33.000  
G14  25049641.939   131636742.984         345.768          38.000    25049644.659   102574115.846         269.632          37.000  
G22  25132774.538   132073632.007         915.972          39.000                                                                  
G23  24958599.801   131158331.938        2627.185          39.000    24958601.121   102201310.284        2047.145          37.000  
E30  28644549.257   150528139.130         826.388          34.000                                                                  
J04                                                                  39871215.380   163265961.123        -520.178          49.000  
> 2025 10 10 00 43 32.0030000  0 42                     
G05  21745896.454   114275433.051       -1786.426          48.000    21745895.066    89045800.554       -1392.090          47.000  
G13  21417200.016   112548119.606       -2117.089          48.000                                                                  
G15  21156264.724   111176895.065         181.464          48.000    21156262.600    86631358.981         141.413          47.000  
G18  23314468.767   122518337.077        1282.992          45.000    23314467.877    95468856.827         999.773          44.000  
G20  23382019.605   122873301.266       -3174.731          43.000                                                                  
G21  23782921.278   124980054.082       -3053.264          42.000    23782922.857    97387072.121       -2379.268          43.000  
C01  38123543.364   198519287.199        -525.184          47.000    38123539.206   153507689.249        -406.264          47.000  
C02  40238945.564   209534733.785        -459.556          37.000    40238941.787   162025536.534        -355.286          39.000  
C06  40471097.941   210743621.788         821.996          37.000    40471099.867   162960348.375         635.474          40.000  
C08  38084882.388   198317967.057         221.168          45.000    38084874.754   153352004.502         170.756          48.000  
C13  38744170.330   201751056.927         258.212          46.000    38744170.903   156006717.280         199.595          45.000  
C16  40237837.363   209528970.858         763.842          42.000    40237841.150   162021108.891         590.879          41.000  
R14  21968585.045   117104926.228        1699.887          53.000    21968587.937    91081626.993        1321.990          50.000  
R13  23279970.715   124313734.437       -2318.766          43.000                                                                  
R05  22729961.085   121504664.500        1351.857          51.000    22729962.146    94503644.681        1051.547          47.000  
R20  22484124.626   120232716.683         936.316          41.000    22484128.357    93514353.895         728.071          49.000  
R19  21725882.781   116218812.545       -3094.391          52.000    21725881.567    90392400.697       -2406.848          50.000  
R03  22964848.842   122932623.021       -2574.376          49.000    22964849.580    95614256.677       -2002.284          46.000  
G24  22992589.967   120826851.733        2861.397          44.000    22992592.324    94150834.169        2229.567          41.000  
G30  25396744.665   133460750.409       -3646.622          36.000    25396750.305   103995423.516       -2842.006          29.000  
E07  26054583.025   136917753.590       -2307.274          45.000    26054588.887   104911024.656       -1767.974          50.000  
E19  26322114.983   138323652.276        1210.387          37.000    26322119.947   105988273.305         926.918          41.000  
E26  25417434.851   133569513.984       -2814.724          46.000    25417438.132   102345479.155       -2156.631          51.000  
E29  24553335.899   129028651.121        -364.979          47.000    24553338.575    98866117.679        -279.655          54.000  
C19  23647227.664   123137317.990         430.658          50.000                                                                  
C20  23886947.490   124385599.458       -1544.656          51.000                                                                  
C03  38489933.505   200427172.529        -519.348          43.000    38489928.450   154982985.383        -401.176          44.000  
C04  38039506.476   198081684.535        -550.291          45.000    38039500.215   153169298.250        -425.508          46.000  
C38  37134861.783   193370962.842           8.234          49.000                                                                  
C37  25165702.443   131044415.267       -1314.323          46.000                                                                  
R04  21106800.289   113025952.836        -705.357          53.000    21106797.762    87909064.915        -548.620          51.000  
R18  24440274.836   130463736.307       -4925.986          45.000    24440289.785   101471810.677       -3831.415          44.000  
R15  24212699.496   129385400.515        3688.682          44.000    24212711.973   100633227.667        2869.069          46.000  
E33  24895191.056   130825109.924        -182.055          47.000    24895193.543   100242624.677        -139.522          53.000  
J03  37966177.825   199513584.300        -328.759          45.000    37966178.319   155465148.863        -256.166          48.000  
J07  38244097.253   200974064.021        -523.328          39.000    38244097.013   156603181.523        -407.733          46.000  
G29  26328582.651   138357598.825       -3015.687          36.000    26328588.397   107811149.043       -2350.429          33.000  
G14  25049576.128   131636397.310         346.018          38.000    25049578.963   102573846.506         269.434          37.000  
G22  25132600.363   132072716.413         915.513          39.000                                                                  
G23  24958099.870   131155704.872        2627.054          39.000    24958101.182   102199263.222        2047.053          37.000  
E30  28644391.998   150527312.743         826.328          35.000                                                                  
J04                                                                  39871342.389   163266481.166        -519.952          49.000  
> 2025 10 10 00 43 33.0030000  0 42                     
G05  21746236.456   114277219.916       -1787.085          48.000    21746235.157    89047192.910       -1392.560          47.000  
G13  21417602.976   112550237.099       -2117.601          48.000                                                                  
G15  21156230.270   111176713.987         180.842          48.000    21156228.053    86631217.878         141.006          47.000  
G18  23314224.725   122517054.550        1282.217          45.000    23314223.817    95467857.461         999.049          44.000  
G20  23382623.737   122876476.609       -3175.467          43.000                                                                  
G21  23783502.420   124983107.749       -3053.709          42.000    23783503.984    97389451.591       -2379.614          43.000  
C01  38123644.169   198519812.582        -525.509          47.000    38123640.094   153508095.499        -406.316          47.000  
C02  40239033.877   209535193.565        -459.618          37.000    40239030.102   162025892.051        -355.392          39.000  
C06  40470940.011   210742799.951         821.538          37.000    40470942.047   162959712.884         635.264          40.000  
C08  38084840.137   198317746.308         220.644          45.000    38084832.335   153351833.789         170.772          48.000  
C13  38744120.762   201750799.106         257.792          46.000    38744121.304   156006517.916         199.312          45.000  
C16  40237690.639   209528206.940         763.905          42.000    40237694.410   162020518.206         590.345          41.000  
R14  21968266.199   117103226.987        1698.850          53.000    21968269.156    91080305.353        1321.362          50.000  
R13  23280405.072   124316053.768       -2319.947          43.000                                                                  
R05  22729708.151   121503312.888        1351.468          51.000    22729709.286    94502593.427        1051.211          47.000  
R20  22483949.716   120231781.247         935.070          41.000    22483953.389    93513626.329         727.130          49.000  
R19  21726461.412   116221907.521       -3095.343          52.000    21726460.064    90394807.886       -2407.538          50.000  
R03  22965329.738   122935197.704       -2574.789          49.000    22965330.419    95616259.196       -2002.554          46.000  
G24  22992045.575   120823990.697        2860.599          44.000    22992047.863    94148604.796        2228.944          41.000  
G30  25397438.653   133464397.599       -3646.948          36.000    25397444.386   103998265.472       -2842.018          29.000  
E07  26055022.312   136920061.190       -2307.617          45.000    26055027.965   104912792.812       -1768.219          49.000  
E19  26321884.776   138322442.362        1209.828          38.000    26321889.648   105987346.206         927.084          40.000  
E26  25417970.423   133572328.956       -2815.193          46.000    25417973.772   102347636.081       -2157.123          51.000  
E29  24553405.265   129029016.366        -365.406          47.000    24553407.974    98866397.540        -279.978          53.000  
C19  23647145.006   123136887.581         430.322          50.000                                                                  
C20  23887244.240   124387144.427       -1545.174          51.000                                                                  
C03  38490033.228   200427691.835        -519.258          43.000    38490028.208   154983386.961        -401.643          44.000  
C04  38039612.214   198082235.140        -550.514          45.000    38039606.018   153169724.016        -425.934          46.000  
C38  37134860.301   193370954.914           7.869          49.000                                                                  
C37  25165955.064   131045730.025       -1315.062          46.000                                                                  
R04  21106932.008   113026658.553        -705.865          53.000    21106929.527    87909613.801        -548.973          51.000  
R18  24441197.810   130468662.681       -4926.439          45.000    24441212.680   101475642.247       -3831.628          44.000  
R15  24212009.292   129381711.957        3688.522          44.000    24212021.655   100630358.824        2868.713          46.000  
E33  24895225.793   130825292.457        -182.825          47.000    24895228.157   100242764.534        -140.079          52.000  
J03  37966240.414   199513913.334        -329.106          45.000    37966240.924   155465405.248        -256.473          48.000  
J07  38244196.879   200974587.488        -523.531          39.000    38244196.680   156603589.415        -408.009          46.000  
G29  26329156.735   138360615.332       -3016.740          36.000    26329162.198   107813499.524       -2350.821          33.000  
G14  25049510.554   131636052.340         345.096          38.000    25049513.345   102573577.733         268.132          38.000  
G22  25132426.280   132071801.418         914.827          39.000                                                                  
G23  24957599.984   131153077.999        2626.576          39.000    24957601.145   102197216.297        2046.889          37.000  
E30  28644234.843   150526486.907         825.574          35.000                                                                  
J04                                                                  39871469.485   163267001.328        -520.203          49.000  
> 2025 10 10 00 43 34.0030000  0 42                     
G05  21746576.637   114279007.607       -1788.074          48.000    21746575.375    89048585.921       -1393.414          47.000  
G13  21418006.092   112552355.283       -2118.538          48.000                                                                  
G15  21156195.964   111176533.641         179.984          48.000    21156193.829    86631077.349         140.213          47.000  
G18  23313980.964   122515773.017        1281.074          45.000    23313980.051    95466858.852         998.302          44.000  
G20  23383228.179   122879652.674       -3176.410          43.000                                                                  
G21  23784083.505   124986162.092       -3054.794          42.000    23784085.176    97391831.587       -2380.278          43.000  
C01  38123745.095   198520338.376        -525.994          47.000    38123741.048   153508502.082        -406.786          48.000  
C02  40239122.151   209535653.770        -460.657          37.000    40239118.446   162026247.915        -356.046          40.000  
C06  40470782.481   210741978.593         820.846          37.000    40470784.327   162959077.741         634.899          41.000  
C08  38084797.807   198317525.910         220.182          45.000    38084790.027   153351663.367         170.396          48.000  
C13  38744071.204   201750541.672         257.237          46.000    38744071.913   156006318.841         199.017          45.000  
C16  40237543.943   209527443.526         763.264          42.000    40237547.772   162019927.868         590.283          42.000  
R14  21967947.676   117101528.867        1697.476          53.000    21967950.574    91078984.594        1320.309          50.000  
R13  23280839.709   124318374.295       -2321.205          43.000                                                                  
R05  22729455.468   121501961.803        1350.810          51.000    22729456.465    94501542.577        1050.649          47.000  
R20  22483775.111   120230847.071         933.495          41.000    22483778.688    93512899.734         726.210          49.000  
R19  21727040.296   116225003.580       -3096.668          52.000    21727038.800    90397215.924       -2408.447          50.000  
R03  22965810.833   122937772.871       -2575.455          49.000    22965811.496    95618262.100       -2002.938          46.000  
G24  22991501.278   120821130.407        2859.935          44.000    22991503.544    94146375.999        2228.650          42.000  
G30  25398132.993   133468045.444       -3648.538          36.000    25398138.670   104001107.885       -2842.082          30.000  
E07  26055461.618   136922369.225       -2308.134          45.000    26055467.324   104914561.310       -1768.665          50.000  
E19  26321654.739   138321233.035        1209.050          37.000    26321659.562   105986419.584         926.485          41.000  
E26  25418506.174   133575144.652       -2815.927          46.000    25418509.621   102349793.561       -2157.767          51.000  
E29  24553475.112   129029382.210        -366.150          47.000    24553477.748    98866677.863        -280.554          54.000  
C19  23647062.473   123136457.696         429.661          50.000                                                                  
C20  23887540.987   124388689.941       -1545.735          51.000                                                                  
C03  38490133.004   200428211.550        -519.723          43.000    38490128.011   154983788.830        -402.095          45.000  
C04  38039718.114   198082786.143        -551.117          45.000    38039711.789   153170150.085        -426.176          47.000  
C38  37134858.723   193370947.380           7.296          49.000                                                                  
C37  25166207.621   131047045.706       -1316.016          46.000                                                                  
R04  21107063.876   113027364.852        -706.588          53.000    21107061.455    87910163.140        -549.520          51.000  
R18  24442120.793   130473589.451       -4926.830          45.000    24442135.818   101479474.141       -3832.167          44.000  
R15  24211319.009   129378023.813        3687.913          44.000    24211331.427   100627490.285        2868.463          46.000  
E33  24895260.667   130825475.859        -183.861          47.000    24895263.186   100242905.066        -140.911          53.000  
J03  37966303.049   199514242.857        -329.825          45.000    37966303.614   155465662.012        -256.899          48.000  
J07  38244296.711   200975111.351        -524.124          39.000    38244296.401   156603997.621        -408.415          46.000  
G29  26329730.820   138363632.195       -3017.185          35.000    26329736.193   107815850.299       -2350.511          33.000  
G14  25049445.072   131635708.251         343.671          38.000    25049447.835   102573309.548         268.048          37.000  
G22  25132252.365   132070887.178         913.893          39.000                                                                  
G23  24957100.206   131150451.501        2626.019          39.000    24957101.256   102195169.672        2046.583          38.000  
E30  28644077.740   150525661.776         824.838          35.000                                                                  
J04                                                                  39871596.520   163267521.736        -520.496          49.000  
> 2025 10 10 00 43 35.0030000  0 42                     
G05  21746916.964   114280796.036       -1788.940          48.000    21746915.713    89049979.497       -1394.043          47.000  
G13  21418409.330   112554474.040       -2119.327          48.000                                                                  
G15  21156161.787   111176353.924         179.219          48.000    21156159.745    86630937.312         139.713          47.000  
G18  23313737.204   122514492.351        1280.150          45.000    23313736.284    95465860.939         997.473          44.000  
G20  23383832.683   122882829.361       -3177.175          43.000                                                                  
G21  23784664.842   124989216.991       -3055.212          42.000    23784666.547    97394212.028       -2380.696          43.000  
C01  38123846.172   198520864.469        -526.366          47.000    38123842.037   153508908.891        -407.079          47.000  
C02  40239210.602   209536114.228        -460.321          37.000    40239206.807   162026603.994        -356.399          39.000  
C06  40470624.921   210741157.540         820.938          37.000    40470626.694   162958442.873         634.678          40.000  
C08  38084755.372   198317305.783         219.681          45.000    38084747.644   153351493.143         170.092          48.000  
C13  38744021.844   201750284.459         257.067          46.000    38744022.495   156006119.956         198.690          45.000  
C16  40237397.389   209526680.485         762.576          42.000    40237401.234   162019337.836         589.606          41.000  
R14  21967629.348   117099831.734        1696.547          53.000    21967632.132    91077664.605        1319.460          50.000  
R13  23281274.479   124320695.887       -2322.294          42.000                                                                  
R05  22729202.792   121500611.118        1350.328          51.000    22729203.781    94500492.046        1050.330          47.000  
R20  22483600.646   120229914.030         932.390          41.000    22483604.274    93512174.050         725.039          49.000  
R19  21727619.203   116228100.601       -3097.705          52.000    21727617.871    90399624.720       -2409.387          50.000  
R03  22966292.011   122940348.421       -2575.875          49.000    22966292.558    95620265.308       -2003.528          46.000  
G24  22990957.074   120818270.778        2859.180          44.000    22990959.417    94144147.720        2227.988          42.000  
G30  25398827.254   133471693.705       -3648.479          36.000    25398833.109   104003950.743       -2843.517          30.000  
E07  26055900.880   136924677.614       -2308.735          45.000    26055906.573   104916330.070       -1769.072          50.000  
E19  26321424.735   138320024.152        1208.544          37.000    26321429.602   105985493.301         925.983          41.000  
E26  25419042.305   133577960.988       -2816.827          46.000    25419045.606   102351951.527       -2158.292          51.000  
E29  24553544.775   129029748.543        -366.757          47.000    24553547.437    98866958.560        -281.008          54.000  
C19  23646979.928   123136028.219         429.170          50.000                                                                  
C20  23887838.015   124390235.888       -1546.261          51.000                                                                  
C03  38490232.795   200428731.568        -520.244          43.000    38490227.901   154984190.933        -402.191          44.000  
C04  38039823.976   198083337.456        -551.500          45.000    38039817.666   153170576.390        -426.557          46.000  
C38  37134857.165   193370940.153           6.891          49.000                                                                  
C37  25166460.427   131048362.214       -1317.026          46.000                                                                  
R04  21107195.987   113028071.626        -707.156          53.000    21107193.397    87910712.859        -550.089          51.000  
R18  24443043.800   130478516.506       -4927.480          45.000    24443058.802   101483306.235       -3832.258          44.000  
R15  24210628.898   129374335.972        3687.402          44.000    24210641.203   100624622.002        2868.027          46.000  
E33  24895295.694   130825660.037        -184.604          47.000    24895298.177   100243046.188        -141.478          53.000  
J03  37966365.871   199514572.746        -330.200          45.000    37966366.447   155465919.073        -257.271          48.000  
J07  38244396.550   200975635.493        -524.405          39.000    38244396.047   156604406.051        -408.586          46.000  
G29  26330304.980   138366649.332       -3017.195          35.000    26330310.461   107818201.300       -2351.267          33.000  
G14  25049379.781   131635364.897         342.838          38.000    25049382.457   102573042.007         267.325          38.000  
G22  25132078.411   132069973.608         913.121          39.000                                                                  
G23  24956600.387   131147825.247        2625.968          39.000    24956601.468   102193123.262        2046.274          38.000  
E30  28643920.839   150524837.291         823.930          35.000                                                                  
J04                                                                  39871723.689   163268042.323        -520.782          49.000  
> 2025 10 10 00 43 36.0030000  0 42                     
G05  21747257.408   114282585.218       -1789.459          48.000    21747256.083    89051373.658       -1394.409          47.000  
G13  21418812.597   112556593.389       -2119.434          48.000                                                                  
G15  21156127.728   111176174.855         178.954          48.000    21156125.652    86630797.779         139.378          47.000  
G18  23313493.685   122513212.596        1279.556          45.000    23313492.805    95464863.731         996.889          44.000  
G20  23384437.293   122886006.700       -3177.424          43.000                                                                  
G21  23785246.304   124992272.479       -3055.536          42.000    23785248.007    97396592.915       -2380.755          42.000  
C01  38123947.306   198521390.879        -526.412          47.000    38123943.152   153509315.937        -407.104          48.000  
C02  40239299.059   209536575.031        -460.690          37.000    40239295.231   162026960.302        -356.195          40.000  
C06  40470467.230   210740336.929         820.259          37.000    40470469.053   162957808.307         634.508          41.000  
C08  38084713.199   198317085.921         219.974          45.000    38084705.514   153351323.146         169.868          48.000  
C13  38743972.373   201750027.526         256.919          46.000    38743973.071   156005921.273         198.882          45.000  
C16  40237250.849   209525917.826         762.588          42.000    40237254.801   162018748.099         589.821          42.000  
R14  21967311.089   117098135.613        1695.797          53.000    21967314.047    91076345.392        1319.024          50.000  
R13  23281709.476   124323018.573       -2323.011          42.000                                                                  
R05  22728950.207   121499260.861        1350.229          51.000    22728951.215    94499441.856        1050.150          48.000  
R20  22483426.419   120228982.170         931.498          41.000    22483429.933    93511449.269         724.446          49.000  
R19  21728198.463   116231198.640       -3098.438          52.000    21728196.984    90402034.300       -2409.778          50.000  
R03  22966773.213   122942924.386       -2575.852          49.000    22966773.772    95622268.838       -2003.477          46.000  
G24  22990413.029   120815411.808        2858.915          44.000    22990415.373    94141919.963        2227.723          42.000  
G30  25399521.656   133475342.522       -3648.841          36.000    25399527.600   104006793.876       -2841.633          30.000  
E07  26056340.346   136926986.361       -2308.794          45.000    26056345.906   104918099.104       -1769.059          50.000  
E19  26321194.846   138318815.769        1208.118          37.000    26321199.706   105984567.397         925.692          41.000  
E26  25419578.353   133580777.980       -2817.193          46.000    25419581.642   102354109.998       -2158.650          51.000  
E29  24553614.654   129030115.385        -366.898          47.000    24553617.253    98867239.650        -281.181          54.000  
C19  23646897.612   123135599.182         429.110          50.000                                                                  
C20  23888134.944   124391782.293       -1546.405          51.000                                                                  
C03  38490332.628   200429251.885        -520.106          43.000    38490327.832   154984593.287        -402.305          45.000  
C04  38039929.890   198083889.091        -551.818          45.000    38039923.545   153171002.945        -426.546          47.000  
C38  37134855.694   193370933.245           6.984          49.000                                                                  
C37  25166713.403   131049679.564       -1317.601          46.000                                                                  
R04  21107328.061   113028778.903        -707.319          53.000    21107325.562    87911262.958        -550.161          51.000  
R18  24443966.784   130483443.848       -4927.313          45.000    24443981.903   101487138.568       -3832.344          44.000  
R15  24209938.751   129370648.497        3687.318          44.000    24209951.056   100621754.004        2867.956          46.000  
E33  24895330.998   130825845.025        -185.330          47.000    24895333.569   100243187.928        -141.936          53.000  
J03  37966428.714   199514903.037        -330.295          45.000    37966429.358   155466176.446        -257.453          48.000  
J07  38244496.310   200976159.975        -524.430          39.000    38244495.923   156604814.736        -408.663          46.000  
G29  26330879.073   138369666.793       -3017.789          35.000    26330884.727   107820552.528       -2351.174          33.000  
G14  25049314.550   131635022.298         342.385          38.000    25049317.325   102572775.062         266.830          37.000  
G22  25131904.739   132069060.722         912.764          39.000                                                                  
G23  24956100.707   131145199.315        2625.934          39.000    24956101.796   102191077.109        2046.008          38.000  
E30  28643764.274   150524013.425         823.618          35.000                                                                  
J04                                                                  39871850.869   163268563.100        -520.868          49.000  
> 2025 10 10 00 43 37.0030000  0 42                     
G05  21747597.882   114284374.380       -1789.105          48.000    21747596.557    89052767.809       -1394.110          47.000  
G13  21419215.814   112558712.564       -2119.122          48.000                                                                  
G15  21156093.717   111175995.656         179.356          48.000    21156091.564    86630658.141         139.768          47.000  
G18  23313250.173   122511932.966        1279.594          45.000    23313249.253    95463866.610         997.121          44.000  
G20  23385041.955   122889183.912       -3177.290          43.000                                                                  
G21  23785827.684   124995327.777       -3055.197          42.000    23785829.408    97398973.666       -2380.641          43.000  
C01  38124048.405   198521916.831        -525.717          47.000    38124044.182   153509722.628        -406.391          48.000  
C02  40239387.417   209537035.401        -460.291          37.000    40239383.613   162027316.284        -355.701          40.000  
C06  40470309.576   210739515.875         821.226          37.000    40470311.320   162957173.424         635.266          40.000  
C08  38084670.842   198316865.575         220.572          45.000    38084663.215   153351152.755         170.457          48.000  
C13  38743922.932   201749770.101         257.597          46.000    38743923.722   156005722.213         199.298          45.000  
C16  40237104.540   209525154.798         763.179          42.000    40237108.366   162018158.087         590.011          41.000  
R14  21966992.909   117096439.696        1695.723          53.000    21966995.839    91075026.354        1318.845          50.000  
R13  23282144.495   124325341.596       -2323.183          43.000                                                                  
R05  22728697.611   121497910.247        1350.759          51.000    22728698.414    94498391.376        1050.648          48.000  
R20  22483252.229   120228050.691         931.069          41.000    22483255.747    93510724.782         724.310          49.000  
R19  21728777.673   116234296.904       -3098.493          52.000    21728776.205    90404444.057       -2409.796          50.000  
R03  22967254.354   122945499.959       -2575.377          49.000    22967254.998    95624272.053       -2003.131          46.000  
G24  22989868.917   120812552.751        2859.285          44.000    22989871.260    94139692.116        2227.979          42.000  
G30  25400215.992   133478991.049       -3648.545          36.000    25400222.079   104009636.928       -2842.632          30.000  
E07  26056779.452   136929294.702       -2308.305          45.000    26056785.117   104919867.830       -1768.633          50.000  
E19  26320964.785   138317607.082        1208.678          37.000    26320969.639   105983641.266         925.983          41.000  
E26  25420114.459   133583594.836       -2816.994          46.000    25420117.659   102356268.359       -2158.335          51.000  
E29  24553684.438   129030481.963        -366.421          47.000    24553686.969    98867520.534        -280.866          54.000  
C19  23646815.147   123135169.818         429.535          50.000                                                                  
C20  23888432.005   124393328.386       -1545.944          51.000                                                                  
C03  38490432.542   200429771.772        -519.708          43.000    38490427.672   154984995.295        -401.969          44.000  
C04  38040035.784   198084440.260        -551.017          45.000    38040029.325   153171429.150        -426.184          46.000  
C38  37134853.538   193370925.887           7.581          49.000                                                                  
C37  25166966.380   131050996.995       -1317.526          46.000                                                                  
R04  21107460.216   113029485.888        -706.864          53.000    21107457.550    87911812.834        -549.784          51.000  
R18  24444889.821   130488370.690       -4926.517          45.000    24444904.831   101490970.496       -3831.775          44.000  
R15  24209248.532   129366960.590        3688.095          44.000    24209260.818   100618885.652        2868.613          46.000  
E33  24895366.170   130826030.029        -185.200          47.000    24895368.566   100243329.681        -141.830          53.000  
J03  37966491.514   199515232.958        -329.864          45.000    37966492.100   155466433.513        -256.899          48.000  
J07  38244596.043   200976684.016        -524.246          39.000    38244595.709   156605223.062        -408.323          46.000  
G29  26331453.172   138372683.732       -3016.914          35.000    26331458.510   107822903.403       -2351.321          32.000  
G14  25049249.351   131634679.731         342.471          38.000    25049252.137   102572508.131         266.745          37.000  
G22  25131730.886   132068147.734         913.185          39.000                                                                  
G23  24955600.995   131142572.902        2626.521          39.000    24955601.994   102189030.528        2046.877          38.000  
E30  28643607.467   150523189.403         824.127          35.000                                                                  
J04                                                                  39871977.927   163269083.452        -520.142          49.000  
> 2025 10 10 00 43 38.0030000  0 42                     
G05  21747938.459   114286163.951       -1789.856          48.000    21747937.095    89054162.280       -1394.714          47.000  
G13  21419619.078   112560831.979       -2119.575          48.000                                                                  
G15  21156059.644   111175816.753         178.567          48.000    21156057.433    86630518.728         139.344          47.000  
G18  23313006.760   122510653.878        1278.716          45.000    23313005.841    95462869.923         996.350          44.000  
G20  23385646.593   122892361.404       -3177.821          43.000                                                                  
G21  23786409.132   124998383.310       -3055.746          42.000    23786410.835    97401354.589       -2380.876          43.000  
C01  38124149.317   198522442.752        -526.143          47.000    38124145.203   153510129.302        -406.619          48.000  
C02  40239475.814   209537495.728        -460.459          37.000    40239472.028   162027672.225        -356.168          40.000  
C06  40470151.862   210738694.860         821.034          37.000    40470153.672   162956538.567         634.821          40.000  
C08  38084628.483   198316645.164         220.234          45.000    38084620.917   153350982.315         170.389          48.000  
C13  38743873.445   201749512.560         257.570          46.000    38743874.292   156005523.068         199.257          45.000  
C16  40236958.022   209524391.816         763.053          42.000    40236961.802   162017568.097         590.043          41.000  
R14  21966674.852   117094744.421        1694.807          53.000    21966677.780    91073707.808        1318.312          50.000  
R13  23282579.648   124327665.358       -2324.356          43.000                                                                  
R05  22728444.823   121496559.696        1350.360          51.000    22728445.846    94497340.954        1050.232          48.000  
R20  22483078.151   120227120.007         930.171          41.000    22483081.689    93510000.918         723.534          49.000  
R19  21729356.912   116237395.796       -3099.341          52.000    21729355.530    90406854.306       -2410.486          50.000  
R03  22967735.520   122948075.566       -2575.772          48.000    22967736.118    95626275.297       -2003.338          46.000  
G24  22989324.941   120809693.999        2858.667          44.000    22989327.335    94137464.515        2227.688          42.000  
G30  25400910.451   133482639.734       -3649.194          36.000    25400916.645   104012480.108       -2844.302          30.000  
E07  26057218.580   136931603.029       -2308.369          45.000    26057224.409   104921636.552       -1768.709          49.000  
E19  26320734.702   138316398.476        1208.630          37.000    26320739.631   105982715.193         926.053          40.000  
E26  25420650.378   133586411.976       -2817.429          46.000    25420653.761   102358426.944       -2158.689          50.000  
E29  24553754.155   129030848.690        -366.842          47.000    24553756.797    98867801.529        -281.124          53.000  
C19  23646732.781   123134740.536         429.039          50.000                                                                  
C20  23888728.943   124394874.586       -1546.353          51.000                                                                  
C03  38490532.434   200430291.608        -519.819          43.000    38490527.496   154985397.247        -401.911          44.000  
C04  38040141.568   198084991.403        -551.273          45.000    38040135.217   153171855.325        -426.339          46.000  
C38  37134851.558   193370918.500           7.329          49.000                                                                  
C37  25167219.445   131052314.917       -1318.411          46.000                                                                  
R04  21107592.289   113030193.003        -707.271          53.000    21107589.615    87912362.811        -550.024          51.000  
R18  24445812.898   130493297.499       -4926.899          44.000    24445827.880   101494802.406       -3832.026          44.000  
R15  24208558.505   129363272.681        3687.740          44.000    24208570.750   100616017.309        2868.223          46.000  
E33  24895401.466   130826215.461        -185.723          47.000    24895403.897   100243471.769        -142.302          52.000  
J03  37966554.377   199515562.904        -329.993          45.000    37966554.852   155466690.623        -257.194          48.000  
J07  38244695.710   200977207.955        -523.712          39.000    38244695.407   156605631.340        -408.221          46.000  
G29  26332027.437   138375700.596       -3016.961          36.000    26332032.190   107825254.201       -2350.401          32.000  
G14  25049184.326   131634337.565         341.823          38.000    25049187.042   102572241.509         266.550          38.000  
G22  25131557.306   132067235.117         912.141          39.000                                                                  
G23  24955101.185   131139946.421        2626.260          39.000    24955102.223   102186983.936        2046.474          38.000  
E30  28643450.732   150522365.688         823.311          35.000                                                                  
J04                                                                  39872104.960   163269603.715        -520.312          49.000  
> 2025 10 10 00 43 39.0030000  0 42                     
G05  21748279.093   114287953.995       -1790.302          48.000    21748277.777    89055557.115       -1395.038          47.000  
G13  21420022.446   112562951.723       -2120.021          48.000                                                                  
G15  21156025.647   111175638.209         178.289          48.000    21156023.390    86630379.612         138.884          47.000  
G18  23312763.460   122509375.417        1277.998          45.000    23312762.584    95461873.714         995.862          44.000  
G20  23386251.343   122895539.255       -3177.971          43.000                                                                  
G21  23786990.665   125001439.150       -3056.288          42.000    23786992.394    97403735.757       -2381.521          43.000  
C01  38124250.429   198522968.701        -526.136          47.000    38124246.218   153510535.999        -406.740          48.000  
C02  40239564.318   209537956.076        -460.441          37.000    40239560.379   162028028.207        -356.388          40.000  
C06  40469994.260   210737873.921         821.050          37.000    40469996.050   162955903.783         634.561          40.000  
C08  38084586.150   198316424.743         220.402          45.000    38084578.569   153350811.880         170.392          48.000  
C13  38743824.072   201749255.002         257.601          46.000    38743824.784   156005323.909         199.219          45.000  
C16  40236811.528   209523628.954         762.772          42.000    40236815.289   162016978.220         589.622          41.000  
R14  21966356.914   117093049.884        1694.146          53.000    21966359.765    91072389.835        1317.693          50.000  
R13  23283014.926   124329989.940       -2325.037          43.000                                                                  
R05  22728192.264   121495209.305        1350.273          51.000    22728193.118    94496290.640        1050.225          48.000  
R20  22482904.267   120226190.219         929.070          41.000    22482907.729    93509277.747         722.719          49.000  
R19  21729936.364   116240495.420       -3100.067          52.000    21729934.991    90409265.123       -2411.182          50.000  
R03  22968216.672   122950651.278       -2575.882          49.000    22968217.328    95628278.626       -2003.367          46.000  
G24  22988780.984   120806835.633        2858.146          44.000    22988783.380    94135237.221        2227.217          42.000  
G30  25401604.725   133486288.672       -3649.618          35.000    25401611.170   104015323.374       -2843.584          30.000  
E07  26057657.947   136933911.458       -2308.483          45.000    26057663.651   104923405.347       -1768.896          50.000  
E19  26320504.564   138315190.113        1207.947          38.000    26320509.774   105981789.305         925.671          41.000  
E26  25421186.550   133589229.490       -2817.802          46.000    25421189.820   102360585.822       -2159.084          51.000  
E29  24553824.018   129031215.651        -367.214          47.000    24553826.571    98868082.706        -281.377          54.000  
C19  23646650.358   123134311.402         428.953          50.000                                                                  
C20  23889026.071   124396420.968       -1546.592          51.000                                                                  
C03  38490632.135   200430811.489        -520.029          43.000    38490627.339   154985799.262        -401.880          44.000  
C04  38040247.486   198085542.587        -551.376          45.000    38040241.014   153172281.533        -426.336          46.000  
C38  37134849.878   193370911.150           7.262          49.000                                                                  
C37  25167472.742   131053633.390       -1318.748          46.000                                                                  
R04  21107724.404   113030900.345        -707.471          53.000    21107721.656    87912912.974        -550.332          51.000  
R18  24446735.861   130498224.328       -4926.861          44.000    24446750.942   101498634.330       -3832.087          44.000  
R15  24207868.352   129359584.817        3687.897          44.000    24207880.486   100613148.995        2868.248          46.000  
E33  24895436.678   130826401.412        -186.247          47.000    24895439.287   100243614.255        -142.804          53.000  
J03  37966617.273   199515892.977        -330.173          45.000    37966617.709   155466947.818        -257.256          48.000  
J07  38244795.498   200977731.996        -524.418          39.000    38244795.069   156606039.664        -408.343          46.000  
G29  26332601.555   138378717.510       -3016.989          36.000    26332606.191   107827605.065       -2351.286          32.000  
G14  25049119.300   131633995.904         341.293          38.000    25049122.006   102571975.267         266.248          38.000  
G22  25131383.743   132066322.861         911.953          39.000                                                                  
G23  24954601.492   131137319.941        2626.560          39.000    24954602.372   102184937.323        2046.930          38.000  
E30  28643294.036   150521542.312         823.330          35.000                                                                  
J04                                                                  39872232.019   163270123.946        -520.197          49.000  
> 2025 10 10 00 43 40.0030000  0 42                     
G05  21748619.801   114289744.614       -1791.132          48.000    21748618.519    89056952.406       -1395.807          47.000  
G13  21420425.943   112565071.874       -2120.657          48.000                                                                  
G15  21155991.689   111175460.128         177.695          48.000    21155989.521    86630240.844         138.531          47.000  
G18  23312520.371   122508097.657        1277.177          45.000    23312519.413    95460878.066         995.087          44.000  
G20  23386856.118   122898717.580       -3178.792          43.000                                                                  
G21  23787572.252   125004495.358       -3056.667          42.000    23787573.971    97406117.219       -2381.708          42.000  
C01  38124351.478   198523494.785        -526.327          47.000    38124347.286   153510942.807        -406.994          48.000  
C02  40239652.745   209538416.542        -460.752          37.000    40239648.747   162028384.271        -356.437          40.000  
C06  40469836.621   210737053.194         820.531          37.000    40469838.359   162955269.123         634.539          40.000  
C08  38084543.771   198316204.434         220.185          45.000    38084536.238   153350641.519         170.180          48.000  
C13  38743774.540   201748997.550         257.235          46.000    38743775.352   156005124.838         198.726          45.000  
C16  40236665.041   209522866.311         762.345          42.000    40236668.845   162016388.481         589.525          41.000  
R14  21966039.137   117091356.166        1693.081          53.000    21966042.135    91071072.499        1316.884          50.000  
R13  23283450.407   124332315.412       -2326.145          43.000                                                                  
R05  22727939.683   121493859.156        1349.743          51.000    22727940.547    94495240.530        1049.776          47.000  
R20  22482730.575   120225261.397         928.286          41.000    22482733.859    93508555.329         721.949          49.000  
R19  21730515.949   116243595.850       -3101.062          52.000    21730514.572    90411676.564       -2411.938          50.000  
R03  22968697.866   122953227.192       -2576.243          49.000    22968698.571    95630282.109       -2003.720          46.000  
G24  22988237.181   120803977.739        2857.472          44.000    22988239.503    94133010.306        2226.374          42.000  
G30  25402299.137   133489937.890       -3649.694          36.000    25402305.641   104018166.872       -2843.399          30.000  
E07  26058097.322   136936220.052       -2308.822          45.000    26058103.045   104925174.270       -1769.146          50.000  
E19  26320274.514   138313982.011        1207.622          37.000    26320279.925   105980863.617         925.405          40.000  
E26  25421722.787   133592047.457       -2818.441          46.000    25421726.129   102362745.040       -2159.552          51.000  
E29  24553893.949   129031582.928        -367.658          47.000    24553896.612    98868364.126        -281.770          53.000  
C19  23646567.896   123133882.520         428.556          50.000                                                                  
C20  23889322.898   124397967.616       -1547.022          51.000                                                                  
C03  38490732.033   200431331.501        -520.212          43.000    38490727.204   154986201.374        -402.559          44.000  
C04  38040353.209   198086093.882        -551.341          45.000    38040346.988   153172707.835        -426.576          46.000  
C38  37134848.545   193370903.940           6.868          49.000                                                                  
C37  25167726.107   131054952.530       -1319.658          46.000                                                                  
R04  21107856.524   113031608.024        -708.123          53.000    21107853.755    87913463.384        -550.661          51.000  
R18  24447658.878   130503151.248       -4927.217          44.000    24447673.910   101502466.318       -3832.130          44.000  
R15  24207178.282   129355897.062        3687.528          44.000    24207190.387   100610280.766        2868.127          46.000  
E33  24895472.344   130826587.981        -187.150          47.000    24895474.864   100243757.202        -143.379          52.000  
J03  37966680.091   199516223.259        -330.655          45.000    37966680.627   155467205.181        -257.679          48.000  
J07  38244895.140   200978256.122        -524.477          39.000    38244894.801   156606448.082        -408.613          46.000  
G29  26333175.664   138381734.533       -3017.452          36.000    26333180.185   107829955.943       -2350.385          32.000  
G14  25049054.372   131633654.841         340.369          38.000    25049057.108   102571709.509         265.715          37.000  
G22  25131210.280   132065411.121         911.170          39.000                                                                  
G23  24954101.752   131134693.584        2625.838          39.000    24954102.662   102182890.814        2046.560          38.000  
E30  28643137.532   150520719.392         822.528          35.000                                                                  
J04                                                                  39872359.029   163270644.219        -520.453          49.000  
